[{"departement_number":"93","dep_name":"Seine-Saint-Denis","cases_number":278,"cured_number":47,"deaths_number":26,"intcare_number":45,"latitude":48.9083101579,"longitude":2.48332622588,"date_record":"2020-04-01"},{"departement_number":"976","dep_name":"Mayotte","cases_number":1,"cured_number":1,"deaths_number":0,"intcare_number":0,"latitude":-12.8206134401,"longitude":45.1474418557,"date_record":"2020-04-01"},{"departement_number":"21","dep_name":"C\u00f4te-d'Or","cases_number":67,"cured_number":31,"deaths_number":18,"intcare_number":8,"latitude":47.4277320977,"longitude":4.7709068324,"date_record":"2020-04-02"},{"departement_number":"2A","dep_name":"Corse-du-Sud","cases_number":6,"cured_number":2,"deaths_number":2,"intcare_number":1,"latitude":41.8725745076,"longitude":8.98230498246,"date_record":"2020-04-02"},{"departement_number":"64","dep_name":"Pyr\u00e9n\u00e9es-Atlantiques","cases_number":19,"cured_number":16,"deaths_number":2,"intcare_number":4,"latitude":43.2555265161,"longitude":-0.759231599387,"date_record":"2020-04-02"},{"departement_number":"68","dep_name":"Haut-Rhin","cases_number":161,"cured_number":96,"deaths_number":26,"intcare_number":21,"latitude":47.8544215156,"longitude":7.27573030264,"date_record":"2020-04-02"},{"departement_number":"32","dep_name":"Gers","cases_number":2,"cured_number":0,"deaths_number":2,"intcare_number":0,"latitude":43.6910233855,"longitude":0.452525133755,"date_record":"2020-04-03"},{"departement_number":"33","dep_name":"Gironde","cases_number":37,"cured_number":17,"deaths_number":3,"intcare_number":5,"latitude":44.8370033803,"longitude":-0.581014218898,"date_record":"2020-04-03"},{"departement_number":"35","dep_name":"Ille-et-Vilaine","cases_number":10,"cured_number":5,"deaths_number":4,"intcare_number":1,"latitude":48.1584949366,"longitude":-1.63554809717,"date_record":"2020-04-03"},{"departement_number":"77","dep_name":"Seine-et-Marne","cases_number":132,"cured_number":45,"deaths_number":12,"intcare_number":23,"latitude":48.6281210472,"longitude":2.93531969909,"date_record":"2020-04-03"},{"departement_number":"15","dep_name":"Cantal","cases_number":1,"cured_number":0,"deaths_number":0,"intcare_number":0,"latitude":45.052550395,"longitude":2.66724467194,"date_record":"2020-04-04"},{"departement_number":"34","dep_name":"H\u00e9rault","cases_number":11,"cured_number":16,"deaths_number":8,"intcare_number":3,"latitude":43.5789600407,"longitude":3.36533220437,"date_record":"2020-04-04"},{"departement_number":"46","dep_name":"Lot","cases_number":0,"cured_number":2,"deaths_number":0,"intcare_number":0,"latitude":44.6202297598,"longitude":1.60336993428,"date_record":"2020-04-04"},{"departement_number":"75","dep_name":"Paris","cases_number":285,"cured_number":121,"deaths_number":36,"intcare_number":76,"latitude":48.8557954256,"longitude":2.34411308321,"date_record":"2020-04-04"},{"departement_number":"68","dep_name":"Haut-Rhin","cases_number":56,"cured_number":43,"deaths_number":13,"intcare_number":10,"latitude":47.8544215156,"longitude":7.27573030264,"date_record":"2020-04-05"},{"departement_number":"01","dep_name":"Ain","cases_number":11,"cured_number":6,"deaths_number":1,"intcare_number":3,"latitude":46.0993486324,"longitude":5.34992793878,"date_record":"2020-04-06"},{"departement_number":"42","dep_name":"Loire","cases_number":40,"cured_number":13,"deaths_number":3,"intcare_number":5,"latitude":45.727718684,"longitude":4.16117137934,"date_record":"2020-04-06"},{"departement_number":"55","dep_name":"Meuse","cases_number":24,"cured_number":8,"deaths_number":3,"intcare_number":3,"latitude":48.9921215392,"longitude":5.38098136105,"date_record":"2020-04-06"},{"departement_number":"87","dep_name":"Haute-Vienne","cases_number":4,"cured_number":3,"deaths_number":0,"intcare_number":0,"latitude":45.894733383,"longitude":1.2356864862,"date_record":"2020-04-07"},{"departement_number":"19","dep_name":"Corr\u00e8ze","cases_number":5,"cured_number":3,"deaths_number":0,"intcare_number":1,"latitude":45.3569109959,"longitude":1.87657009296,"date_record":"2020-04-08"},{"departement_number":"13","dep_name":"Bouches-du-Rh\u00f4ne","cases_number":75,"cured_number":120,"deaths_number":10,"intcare_number":10,"latitude":43.5447787602,"longitude":5.08012851604,"date_record":"2020-04-09"},{"departement_number":"47","dep_name":"Lot-et-Garonne","cases_number":1,"cured_number":0,"deaths_number":1,"intcare_number":0,"latitude":44.3650343519,"longitude":0.459260227242,"date_record":"2020-04-09"},{"departement_number":"55","dep_name":"Meuse","cases_number":10,"cured_number":14,"deaths_number":2,"intcare_number":1,"latitude":48.9921215392,"longitude":5.38098136105,"date_record":"2020-04-09"},{"departement_number":"94","dep_name":"Val-de-Marne","cases_number":174,"cured_number":74,"deaths_number":21,"intcare_number":22,"latitude":48.7692936982,"longitude":2.47462077077,"date_record":"2020-04-09"},{"departement_number":"971","dep_name":"Guadeloupe","cases_number":3,"cured_number":3,"deaths_number":0,"intcare_number":2,"latitude":16.197646337,"longitude":-61.5397927924,"date_record":"2020-04-09"},{"departement_number":"35","dep_name":"Ille-et-Vilaine","cases_number":15,"cured_number":8,"deaths_number":9,"intcare_number":1,"latitude":48.1584949366,"longitude":-1.63554809717,"date_record":"2020-04-10"},{"departement_number":"46","dep_name":"Lot","cases_number":5,"cured_number":6,"deaths_number":1,"intcare_number":0,"latitude":44.6202297598,"longitude":1.60336993428,"date_record":"2020-04-10"},{"departement_number":"50","dep_name":"Manche","cases_number":10,"cured_number":3,"deaths_number":0,"intcare_number":1,"latitude":49.0844800222,"longitude":-1.32695429884,"date_record":"2020-04-10"},{"departement_number":"91","dep_name":"Essonne","cases_number":81,"cured_number":42,"deaths_number":11,"intcare_number":13,"latitude":48.5174587303,"longitude":2.24865517666,"date_record":"2020-04-11"},{"departement_number":"08","dep_name":"Ardennes","cases_number":23,"cured_number":9,"deaths_number":4,"intcare_number":0,"latitude":49.6129025165,"longitude":4.646194327,"date_record":"2020-04-12"},{"departement_number":"83","dep_name":"Var","cases_number":26,"cured_number":30,"deaths_number":5,"intcare_number":3,"latitude":43.4437447206,"longitude":6.24426728036,"date_record":"2020-04-12"},{"departement_number":"12","dep_name":"Aveyron","cases_number":3,"cured_number":1,"deaths_number":1,"intcare_number":0,"latitude":44.2821565223,"longitude":2.67730358922,"date_record":"2020-04-13"},{"departement_number":"2A","dep_name":"Corse-du-Sud","cases_number":3,"cured_number":0,"deaths_number":2,"intcare_number":1,"latitude":41.8725745076,"longitude":8.98230498246,"date_record":"2020-04-13"},{"departement_number":"76","dep_name":"Seine-Maritime","cases_number":16,"cured_number":6,"deaths_number":5,"intcare_number":6,"latitude":49.6592919439,"longitude":1.03091844922,"date_record":"2020-04-13"},{"departement_number":"976","dep_name":"Mayotte","cases_number":0,"cured_number":0,"deaths_number":0,"intcare_number":0,"latitude":-12.8206134401,"longitude":45.1474418557,"date_record":"2020-04-13"},{"departement_number":"03","dep_name":"Allier","cases_number":6,"cured_number":0,"deaths_number":3,"intcare_number":2,"latitude":46.3935951626,"longitude":3.18694463087,"date_record":"2020-04-14"},{"departement_number":"19","dep_name":"Corr\u00e8ze","cases_number":5,"cured_number":1,"deaths_number":2,"intcare_number":0,"latitude":45.3569109959,"longitude":1.87657009296,"date_record":"2020-04-14"},{"departement_number":"48","dep_name":"Loz\u00e8re","cases_number":0,"cured_number":0,"deaths_number":0,"intcare_number":0,"latitude":44.5155815066,"longitude":3.49993932838,"date_record":"2020-04-14"},{"departement_number":"89","dep_name":"Yonne","cases_number":18,"cured_number":5,"deaths_number":4,"intcare_number":2,"latitude":47.8394034912,"longitude":3.56294745256,"date_record":"2020-04-14"},{"departement_number":"55","dep_name":"Meuse","cases_number":17,"cured_number":13,"deaths_number":2,"intcare_number":1,"latitude":48.9921215392,"longitude":5.38098136105,"date_record":"2020-04-15"},{"departement_number":"68","dep_name":"Haut-Rhin","cases_number":77,"cured_number":95,"deaths_number":14,"intcare_number":6,"latitude":47.8544215156,"longitude":7.27573030264,"date_record":"2020-04-15"},{"departement_number":"02","dep_name":"Aisne","cases_number":13,"cured_number":14,"deaths_number":4,"intcare_number":1,"latitude":49.5565688819,"longitude":3.5620366046,"date_record":"2020-04-16"},{"departement_number":"17","dep_name":"Charente-Maritime","cases_number":2,"cured_number":3,"deaths_number":0,"intcare_number":0,"latitude":45.7753051382,"longitude":-0.682876145304,"date_record":"2020-04-16"},{"departement_number":"39","dep_name":"Jura","cases_number":11,"cured_number":8,"deaths_number":2,"intcare_number":1,"latitude":46.7307322865,"longitude":5.6954747876,"date_record":"2020-04-16"},{"departement_number":"40","dep_name":"Landes","cases_number":3,"cured_number":1,"deaths_number":0,"intcare_number":0,"latitude":43.9678995107,"longitude":-0.78938928305,"date_record":"2020-04-16"},{"departement_number":"86","dep_name":"Vienne","cases_number":2,"cured_number":6,"deaths_number":3,"intcare_number":0,"latitude":46.5638983824,"longitude":0.462231269996,"date_record":"2020-04-16"},{"departement_number":"81","dep_name":"Tarn","cases_number":1,"cured_number":0,"deaths_number":0,"intcare_number":0,"latitude":43.7873656836,"longitude":2.1627880067,"date_record":"2020-04-17"},{"departement_number":"84","dep_name":"Vaucluse","cases_number":8,"cured_number":6,"deaths_number":1,"intcare_number":0,"latitude":44.0044504695,"longitude":5.17763039718,"date_record":"2020-04-18"},{"departement_number":"91","dep_name":"Essonne","cases_number":36,"cured_number":36,"deaths_number":8,"intcare_number":5,"latitude":48.5174587303,"longitude":2.24865517666,"date_record":"2020-04-18"},{"departement_number":"05","dep_name":"Hautes-Alpes","cases_number":0,"cured_number":0,"deaths_number":0,"intcare_number":0,"latitude":44.6602695202,"longitude":6.26479998904,"date_record":"2020-04-19"},{"departement_number":"31","dep_name":"Haute-Garonne","cases_number":8,"cured_number":6,"deaths_number":2,"intcare_number":3,"latitude":43.3618361296,"longitude":1.1827434953,"date_record":"2020-04-19"},{"departement_number":"15","dep_name":"Cantal","cases_number":1,"cured_number":0,"deaths_number":0,"intcare_number":0,"latitude":45.052550395,"longitude":2.66724467194,"date_record":"2020-03-19"},{"departement_number":"92","dep_name":"Hauts-de-Seine","cases_number":95,"cured_number":13,"deaths_number":3,"intcare_number":19,"latitude":48.8488903633,"longitude":2.25051074841,"date_record":"2020-03-19"},{"departement_number":"13","dep_name":"Bouches-du-Rh\u00f4ne","cases_number":44,"cured_number":7,"deaths_number":0,"intcare_number":5,"latitude":43.5447787602,"longitude":5.08012851604,"date_record":"2020-03-20"},{"departement_number":"14","dep_name":"Calvados","cases_number":1,"cured_number":2,"deaths_number":1,"intcare_number":0,"latitude":49.0997343025,"longitude":-0.360286830582,"date_record":"2020-03-20"},{"departement_number":"19","dep_name":"Corr\u00e8ze","cases_number":0,"cured_number":0,"deaths_number":0,"intcare_number":0,"latitude":45.3569109959,"longitude":1.87657009296,"date_record":"2020-03-20"},{"departement_number":"42","dep_name":"Loire","cases_number":13,"cured_number":1,"deaths_number":1,"intcare_number":4,"latitude":45.727718684,"longitude":4.16117137934,"date_record":"2020-03-20"},{"departement_number":"79","dep_name":"Deux-S\u00e8vres","cases_number":8,"cured_number":5,"deaths_number":0,"intcare_number":0,"latitude":46.5507560865,"longitude":-0.316295053643,"date_record":"2020-03-20"},{"departement_number":"83","dep_name":"Var","cases_number":8,"cured_number":2,"deaths_number":0,"intcare_number":3,"latitude":43.4437447206,"longitude":6.24426728036,"date_record":"2020-03-20"},{"departement_number":"972","dep_name":"Martinique","cases_number":2,"cured_number":0,"deaths_number":0,"intcare_number":0,"latitude":14.6548621716,"longitude":-61.0193671014,"date_record":"2020-03-20"},{"departement_number":"63","dep_name":"Puy-de-D\u00f4me","cases_number":2,"cured_number":2,"deaths_number":0,"intcare_number":1,"latitude":45.7248587136,"longitude":3.13939320845,"date_record":"2020-03-21"},{"departement_number":"66","dep_name":"Pyr\u00e9n\u00e9es-Orientales","cases_number":1,"cured_number":0,"deaths_number":1,"intcare_number":1,"latitude":42.5992453459,"longitude":2.51921466788,"date_record":"2020-03-21"},{"departement_number":"69","dep_name":"Rh\u00f4ne","cases_number":71,"cured_number":4,"deaths_number":2,"intcare_number":7,"latitude":45.8663416997,"longitude":4.64058012474,"date_record":"2020-03-21"},{"departement_number":"87","dep_name":"Haute-Vienne","cases_number":3,"cured_number":0,"deaths_number":1,"intcare_number":0,"latitude":45.894733383,"longitude":1.2356864862,"date_record":"2020-03-21"},{"departement_number":"14","dep_name":"Calvados","cases_number":10,"cured_number":0,"deaths_number":0,"intcare_number":2,"latitude":49.0997343025,"longitude":-0.360286830582,"date_record":"2020-03-22"},{"departement_number":"72","dep_name":"Sarthe","cases_number":5,"cured_number":1,"deaths_number":0,"intcare_number":1,"latitude":47.9939387561,"longitude":0.227666178967,"date_record":"2020-03-22"},{"departement_number":"972","dep_name":"Martinique","cases_number":1,"cured_number":0,"deaths_number":0,"intcare_number":1,"latitude":14.6548621716,"longitude":-61.0193671014,"date_record":"2020-03-22"},{"departement_number":"68","dep_name":"Haut-Rhin","cases_number":141,"cured_number":14,"deaths_number":22,"intcare_number":21,"latitude":47.8544215156,"longitude":7.27573030264,"date_record":"2020-03-23"},{"departement_number":"90","dep_name":"Territoire de Belfort","cases_number":34,"cured_number":2,"deaths_number":6,"intcare_number":3,"latitude":47.6346179758,"longitude":6.92327096161,"date_record":"2020-03-23"},{"departement_number":"08","dep_name":"Ardennes","cases_number":0,"cured_number":1,"deaths_number":0,"intcare_number":0,"latitude":49.6129025165,"longitude":4.646194327,"date_record":"2020-03-24"},{"departement_number":"61","dep_name":"Orne","cases_number":5,"cured_number":3,"deaths_number":0,"intcare_number":0,"latitude":48.6242069157,"longitude":0.123901825625,"date_record":"2020-03-24"},{"departement_number":"07","dep_name":"Ard\u00e8che","cases_number":44,"cured_number":33,"deaths_number":1,"intcare_number":1,"latitude":44.7532685394,"longitude":4.42389358891,"date_record":"2020-03-25"},{"departement_number":"11","dep_name":"Aude","cases_number":12,"cured_number":4,"deaths_number":3,"intcare_number":1,"latitude":43.1040405728,"longitude":2.41617917074,"date_record":"2020-03-25"},{"departement_number":"31","dep_name":"Haute-Garonne","cases_number":28,"cured_number":6,"deaths_number":0,"intcare_number":11,"latitude":43.3618361296,"longitude":1.1827434953,"date_record":"2020-03-25"},{"departement_number":"57","dep_name":"Moselle","cases_number":92,"cured_number":34,"deaths_number":14,"intcare_number":20,"latitude":49.0371678959,"longitude":6.6620530164,"date_record":"2020-03-25"},{"departement_number":"976","dep_name":"Mayotte","cases_number":0,"cured_number":0,"deaths_number":0,"intcare_number":0,"latitude":-12.8206134401,"longitude":45.1474418557,"date_record":"2020-03-25"},{"departement_number":"49","dep_name":"Maine-et-Loire","cases_number":25,"cured_number":10,"deaths_number":2,"intcare_number":5,"latitude":47.3868744384,"longitude":-0.557569659727,"date_record":"2020-03-26"},{"departement_number":"25","dep_name":"Doubs","cases_number":27,"cured_number":8,"deaths_number":3,"intcare_number":8,"latitude":47.1620749616,"longitude":6.36119815415,"date_record":"2020-03-27"},{"departement_number":"37","dep_name":"Indre-et-Loire","cases_number":25,"cured_number":6,"deaths_number":0,"intcare_number":6,"latitude":47.258431298,"longitude":0.690550351171,"date_record":"2020-03-27"},{"departement_number":"58","dep_name":"Ni\u00e8vre","cases_number":2,"cured_number":0,"deaths_number":0,"intcare_number":1,"latitude":47.1149000482,"longitude":3.50405732988,"date_record":"2020-03-27"},{"departement_number":"85","dep_name":"Vend\u00e9e","cases_number":8,"cured_number":0,"deaths_number":1,"intcare_number":1,"latitude":46.6762230412,"longitude":-1.30298330994,"date_record":"2020-03-27"},{"departement_number":"95","dep_name":"Val-d'Oise","cases_number":134,"cured_number":63,"deaths_number":14,"intcare_number":13,"latitude":49.0821697186,"longitude":2.12479545535,"date_record":"2020-03-27"},{"departement_number":"09","dep_name":"Ari\u00e8ge","cases_number":0,"cured_number":0,"deaths_number":0,"intcare_number":0,"latitude":42.9192346519,"longitude":1.50528080463,"date_record":"2020-03-28"},{"departement_number":"15","dep_name":"Cantal","cases_number":1,"cured_number":0,"deaths_number":0,"intcare_number":0,"latitude":45.052550395,"longitude":2.66724467194,"date_record":"2020-03-28"},{"departement_number":"61","dep_name":"Orne","cases_number":6,"cured_number":3,"deaths_number":0,"intcare_number":0,"latitude":48.6242069157,"longitude":0.123901825625,"date_record":"2020-03-28"},{"departement_number":"70","dep_name":"Haute-Sa\u00f4ne","cases_number":8,"cured_number":5,"deaths_number":3,"intcare_number":4,"latitude":47.6387099589,"longitude":6.08583375124,"date_record":"2020-03-28"},{"departement_number":"971","dep_name":"Guadeloupe","cases_number":18,"cured_number":3,"deaths_number":0,"intcare_number":0,"latitude":16.197646337,"longitude":-61.5397927924,"date_record":"2020-03-28"},{"departement_number":"02","dep_name":"Aisne","cases_number":5,"cured_number":1,"deaths_number":1,"intcare_number":1,"latitude":49.5565688819,"longitude":3.5620366046,"date_record":"2020-03-29"},{"departement_number":"50","dep_name":"Manche","cases_number":9,"cured_number":2,"deaths_number":2,"intcare_number":2,"latitude":49.0844800222,"longitude":-1.32695429884,"date_record":"2020-03-29"},{"departement_number":"16","dep_name":"Charente","cases_number":6,"cured_number":0,"deaths_number":2,"intcare_number":0,"latitude":45.715094339,"longitude":0.198420146721,"date_record":"2020-03-30"},{"departement_number":"42","dep_name":"Loire","cases_number":32,"cured_number":11,"deaths_number":3,"intcare_number":11,"latitude":45.727718684,"longitude":4.16117137934,"date_record":"2020-03-30"},{"departement_number":"24","dep_name":"Dordogne","cases_number":1,"cured_number":1,"deaths_number":1,"intcare_number":0,"latitude":45.1059247866,"longitude":0.741353186486,"date_record":"2020-03-31"},{"departement_number":"55","dep_name":"Meuse","cases_number":13,"cured_number":15,"deaths_number":5,"intcare_number":0,"latitude":48.9921215392,"longitude":5.38098136105,"date_record":"2020-03-31"},{"departement_number":"76","dep_name":"Seine-Maritime","cases_number":70,"cured_number":17,"deaths_number":10,"intcare_number":20,"latitude":49.6592919439,"longitude":1.03091844922,"date_record":"2020-03-31"},{"departement_number":"972","dep_name":"Martinique","cases_number":11,"cured_number":3,"deaths_number":0,"intcare_number":3,"latitude":14.6548621716,"longitude":-61.0193671014,"date_record":"2020-03-31"},{"departement_number":"29","dep_name":"Finist\u00e8re","cases_number":11,"cured_number":4,"deaths_number":0,"intcare_number":5,"latitude":48.2628706879,"longitude":-4.05692098846,"date_record":"2020-04-01"},{"departement_number":"42","dep_name":"Loire","cases_number":44,"cured_number":29,"deaths_number":13,"intcare_number":5,"latitude":45.727718684,"longitude":4.16117137934,"date_record":"2020-04-01"},{"departement_number":"55","dep_name":"Meuse","cases_number":31,"cured_number":9,"deaths_number":0,"intcare_number":3,"latitude":48.9921215392,"longitude":5.38098136105,"date_record":"2020-04-01"},{"departement_number":"42","dep_name":"Loire","cases_number":104,"cured_number":63,"deaths_number":11,"intcare_number":10,"latitude":45.727718684,"longitude":4.16117137934,"date_record":"2020-11-04"},{"departement_number":"84","dep_name":"Vaucluse","cases_number":48,"cured_number":27,"deaths_number":9,"intcare_number":9,"latitude":44.0044504695,"longitude":5.17763039718,"date_record":"2020-11-04"},{"departement_number":"17","dep_name":"Charente-Maritime","cases_number":7,"cured_number":7,"deaths_number":0,"intcare_number":2,"latitude":45.7753051382,"longitude":-0.682876145304,"date_record":"2020-11-05"},{"departement_number":"24","dep_name":"Dordogne","cases_number":5,"cured_number":4,"deaths_number":1,"intcare_number":1,"latitude":45.1059247866,"longitude":0.741353186486,"date_record":"2020-11-05"},{"departement_number":"58","dep_name":"Ni\u00e8vre","cases_number":11,"cured_number":2,"deaths_number":1,"intcare_number":2,"latitude":47.1149000482,"longitude":3.50405732988,"date_record":"2020-11-05"},{"departement_number":"68","dep_name":"Haut-Rhin","cases_number":28,"cured_number":19,"deaths_number":1,"intcare_number":2,"latitude":47.8544215156,"longitude":7.27573030264,"date_record":"2020-11-05"},{"departement_number":"2B","dep_name":"Haute-Corse","cases_number":5,"cured_number":2,"deaths_number":0,"intcare_number":1,"latitude":42.3944507303,"longitude":9.21065397337,"date_record":"2020-11-06"},{"departement_number":"38","dep_name":"Is\u00e8re","cases_number":116,"cured_number":77,"deaths_number":13,"intcare_number":21,"latitude":45.261648411,"longitude":5.57408357306,"date_record":"2020-11-06"},{"departement_number":"45","dep_name":"Loiret","cases_number":17,"cured_number":9,"deaths_number":3,"intcare_number":4,"latitude":47.9116615818,"longitude":2.34174926743,"date_record":"2020-11-06"},{"departement_number":"64","dep_name":"Pyr\u00e9n\u00e9es-Atlantiques","cases_number":28,"cured_number":13,"deaths_number":0,"intcare_number":3,"latitude":43.2555265161,"longitude":-0.759231599387,"date_record":"2020-11-06"},{"departement_number":"77","dep_name":"Seine-et-Marne","cases_number":33,"cured_number":31,"deaths_number":8,"intcare_number":6,"latitude":48.6281210472,"longitude":2.93531969909,"date_record":"2020-11-06"},{"departement_number":"87","dep_name":"Haute-Vienne","cases_number":9,"cured_number":7,"deaths_number":0,"intcare_number":1,"latitude":45.894733383,"longitude":1.2356864862,"date_record":"2020-11-06"},{"departement_number":"04","dep_name":"Alpes-de-Haute-Provence","cases_number":13,"cured_number":7,"deaths_number":2,"intcare_number":3,"latitude":44.1051668442,"longitude":6.24531853559,"date_record":"2020-11-07"},{"departement_number":"39","dep_name":"Jura","cases_number":20,"cured_number":16,"deaths_number":0,"intcare_number":0,"latitude":46.7307322865,"longitude":5.6954747876,"date_record":"2020-11-07"},{"departement_number":"43","dep_name":"Haute-Loire","cases_number":27,"cured_number":9,"deaths_number":3,"intcare_number":1,"latitude":45.1284371118,"longitude":3.80398850536,"date_record":"2020-11-07"},{"departement_number":"46","dep_name":"Lot","cases_number":2,"cured_number":1,"deaths_number":0,"intcare_number":0,"latitude":44.6202297598,"longitude":1.60336993428,"date_record":"2020-11-07"},{"departement_number":"48","dep_name":"Loz\u00e8re","cases_number":5,"cured_number":2,"deaths_number":0,"intcare_number":1,"latitude":44.5155815066,"longitude":3.49993932838,"date_record":"2020-11-07"},{"departement_number":"84","dep_name":"Vaucluse","cases_number":32,"cured_number":25,"deaths_number":5,"intcare_number":4,"latitude":44.0044504695,"longitude":5.17763039718,"date_record":"2020-11-07"},{"departement_number":"11","dep_name":"Aude","cases_number":3,"cured_number":1,"deaths_number":0,"intcare_number":0,"latitude":43.1040405728,"longitude":2.41617917074,"date_record":"2020-11-08"},{"departement_number":"68","dep_name":"Haut-Rhin","cases_number":15,"cured_number":12,"deaths_number":2,"intcare_number":6,"latitude":47.8544215156,"longitude":7.27573030264,"date_record":"2020-11-08"},{"departement_number":"73","dep_name":"Savoie","cases_number":55,"cured_number":6,"deaths_number":10,"intcare_number":6,"latitude":45.4750948941,"longitude":6.44225224812,"date_record":"2020-11-08"},{"departement_number":"972","dep_name":"Martinique","cases_number":6,"cured_number":12,"deaths_number":0,"intcare_number":2,"latitude":14.6548621716,"longitude":-61.0193671014,"date_record":"2020-11-08"},{"departement_number":"06","dep_name":"Alpes-Maritimes","cases_number":31,"cured_number":22,"deaths_number":3,"intcare_number":10,"latitude":43.93340912,"longitude":7.11989042987,"date_record":"2020-11-09"},{"departement_number":"44","dep_name":"Loire-Atlantique","cases_number":32,"cured_number":12,"deaths_number":8,"intcare_number":8,"latitude":47.3612553393,"longitude":-1.6750424562,"date_record":"2020-11-09"},{"departement_number":"82","dep_name":"Tarn-et-Garonne","cases_number":13,"cured_number":6,"deaths_number":2,"intcare_number":3,"latitude":44.0827639407,"longitude":1.27668490496,"date_record":"2020-11-09"},{"departement_number":"93","dep_name":"Seine-Saint-Denis","cases_number":55,"cured_number":55,"deaths_number":11,"intcare_number":18,"latitude":48.9083101579,"longitude":2.48332622588,"date_record":"2020-11-09"},{"departement_number":"25","dep_name":"Doubs","cases_number":24,"cured_number":12,"deaths_number":1,"intcare_number":2,"latitude":47.1620749616,"longitude":6.36119815415,"date_record":"2020-11-10"},{"departement_number":"2B","dep_name":"Haute-Corse","cases_number":2,"cured_number":1,"deaths_number":1,"intcare_number":1,"latitude":42.3944507303,"longitude":9.21065397337,"date_record":"2020-11-10"},{"departement_number":"25","dep_name":"Doubs","cases_number":27,"cured_number":28,"deaths_number":3,"intcare_number":0,"latitude":47.1620749616,"longitude":6.36119815415,"date_record":"2020-11-11"},{"departement_number":"55","dep_name":"Meuse","cases_number":6,"cured_number":3,"deaths_number":1,"intcare_number":0,"latitude":48.9921215392,"longitude":5.38098136105,"date_record":"2020-11-11"},{"departement_number":"65","dep_name":"Hautes-Pyr\u00e9n\u00e9es","cases_number":24,"cured_number":4,"deaths_number":4,"intcare_number":0,"latitude":43.0528662,"longitude":0.172283279776,"date_record":"2020-11-11"},{"departement_number":"90","dep_name":"Territoire de Belfort","cases_number":4,"cured_number":9,"deaths_number":0,"intcare_number":2,"latitude":47.6346179758,"longitude":6.92327096161,"date_record":"2020-11-11"},{"departement_number":"01","dep_name":"Ain","cases_number":41,"cured_number":17,"deaths_number":5,"intcare_number":5,"latitude":46.0993486324,"longitude":5.34992793878,"date_record":"2020-11-12"},{"departement_number":"42","dep_name":"Loire","cases_number":65,"cured_number":43,"deaths_number":19,"intcare_number":3,"latitude":45.727718684,"longitude":4.16117137934,"date_record":"2020-11-12"},{"departement_number":"29","dep_name":"Finist\u00e8re","cases_number":7,"cured_number":11,"deaths_number":1,"intcare_number":3,"latitude":48.2628706879,"longitude":-4.05692098846,"date_record":"2020-11-13"},{"departement_number":"2A","dep_name":"Corse-du-Sud","cases_number":1,"cured_number":1,"deaths_number":0,"intcare_number":0,"latitude":41.8725745076,"longitude":8.98230498246,"date_record":"2020-11-13"},{"departement_number":"65","dep_name":"Hautes-Pyr\u00e9n\u00e9es","cases_number":12,"cured_number":8,"deaths_number":1,"intcare_number":0,"latitude":43.0528662,"longitude":0.172283279776,"date_record":"2020-11-13"},{"departement_number":"33","dep_name":"Gironde","cases_number":25,"cured_number":18,"deaths_number":5,"intcare_number":3,"latitude":44.8370033803,"longitude":-0.581014218898,"date_record":"2020-11-14"},{"departement_number":"34","dep_name":"H\u00e9rault","cases_number":25,"cured_number":32,"deaths_number":8,"intcare_number":8,"latitude":43.5789600407,"longitude":3.36533220437,"date_record":"2020-11-14"},{"departement_number":"64","dep_name":"Pyr\u00e9n\u00e9es-Atlantiques","cases_number":16,"cured_number":7,"deaths_number":4,"intcare_number":1,"latitude":43.2555265161,"longitude":-0.759231599387,"date_record":"2020-11-14"},{"departement_number":"73","dep_name":"Savoie","cases_number":34,"cured_number":39,"deaths_number":6,"intcare_number":7,"latitude":45.4750948941,"longitude":6.44225224812,"date_record":"2020-11-14"},{"departement_number":"32","dep_name":"Gers","cases_number":2,"cured_number":0,"deaths_number":0,"intcare_number":1,"latitude":43.6910233855,"longitude":0.452525133755,"date_record":"2020-11-15"},{"departement_number":"38","dep_name":"Is\u00e8re","cases_number":51,"cured_number":14,"deaths_number":15,"intcare_number":5,"latitude":45.261648411,"longitude":5.57408357306,"date_record":"2020-11-15"},{"departement_number":"09","dep_name":"Ari\u00e8ge","cases_number":2,"cured_number":0,"deaths_number":2,"intcare_number":0,"latitude":42.9192346519,"longitude":1.50528080463,"date_record":"2020-11-16"},{"departement_number":"24","dep_name":"Dordogne","cases_number":2,"cured_number":7,"deaths_number":2,"intcare_number":0,"latitude":45.1059247866,"longitude":0.741353186486,"date_record":"2020-11-16"},{"departement_number":"54","dep_name":"Meurthe-et-Moselle","cases_number":34,"cured_number":2,"deaths_number":4,"intcare_number":4,"latitude":48.7870120249,"longitude":6.16817758076,"date_record":"2020-11-16"},{"departement_number":"77","dep_name":"Seine-et-Marne","cases_number":34,"cured_number":22,"deaths_number":10,"intcare_number":10,"latitude":48.6281210472,"longitude":2.93531969909,"date_record":"2020-11-16"},{"departement_number":"95","dep_name":"Val-d'Oise","cases_number":25,"cured_number":20,"deaths_number":5,"intcare_number":4,"latitude":49.0821697186,"longitude":2.12479545535,"date_record":"2020-11-16"},{"departement_number":"974","dep_name":"La R\u00e9union","cases_number":7,"cured_number":2,"deaths_number":0,"intcare_number":1,"latitude":-21.1332035811,"longitude":55.5325090448,"date_record":"2020-11-16"},{"departement_number":"38","dep_name":"Is\u00e8re","cases_number":33,"cured_number":47,"deaths_number":13,"intcare_number":11,"latitude":45.261648411,"longitude":5.57408357306,"date_record":"2020-11-17"},{"departement_number":"89","dep_name":"Yonne","cases_number":10,"cured_number":9,"deaths_number":3,"intcare_number":2,"latitude":47.8394034912,"longitude":3.56294745256,"date_record":"2020-11-17"},{"departement_number":"90","dep_name":"Territoire de Belfort","cases_number":26,"cured_number":11,"deaths_number":2,"intcare_number":1,"latitude":47.6346179758,"longitude":6.92327096161,"date_record":"2020-11-17"},{"departement_number":"22","dep_name":"C\u00f4tes-d'Armor","cases_number":0,"cured_number":5,"deaths_number":1,"intcare_number":0,"latitude":48.4390612443,"longitude":-2.86206319142,"date_record":"2020-11-18"},{"departement_number":"41","dep_name":"Loir-et-Cher","cases_number":6,"cured_number":5,"deaths_number":1,"intcare_number":0,"latitude":47.6166739203,"longitude":1.42936448417,"date_record":"2020-11-18"},{"departement_number":"08","dep_name":"Ardennes","cases_number":3,"cured_number":0,"deaths_number":1,"intcare_number":0,"latitude":49.6129025165,"longitude":4.646194327,"date_record":"2020-11-19"},{"departement_number":"24","dep_name":"Dordogne","cases_number":13,"cured_number":4,"deaths_number":1,"intcare_number":2,"latitude":45.1059247866,"longitude":0.741353186486,"date_record":"2020-11-19"},{"departement_number":"53","dep_name":"Mayenne","cases_number":10,"cured_number":10,"deaths_number":1,"intcare_number":1,"latitude":48.1463719594,"longitude":-0.65589089497,"date_record":"2020-11-19"},{"departement_number":"69","dep_name":"Rh\u00f4ne","cases_number":100,"cured_number":155,"deaths_number":37,"intcare_number":17,"latitude":45.8663416997,"longitude":4.64058012474,"date_record":"2020-11-19"},{"departement_number":"81","dep_name":"Tarn","cases_number":14,"cured_number":17,"deaths_number":2,"intcare_number":2,"latitude":43.7873656836,"longitude":2.1627880067,"date_record":"2020-11-19"},{"departement_number":"33","dep_name":"Gironde","cases_number":19,"cured_number":21,"deaths_number":6,"intcare_number":5,"latitude":44.8370033803,"longitude":-0.581014218898,"date_record":"2020-11-20"},{"departement_number":"37","dep_name":"Indre-et-Loire","cases_number":9,"cured_number":3,"deaths_number":0,"intcare_number":1,"latitude":47.258431298,"longitude":0.690550351171,"date_record":"2020-11-20"},{"departement_number":"55","dep_name":"Meuse","cases_number":3,"cured_number":5,"deaths_number":1,"intcare_number":2,"latitude":48.9921215392,"longitude":5.38098136105,"date_record":"2020-11-20"},{"departement_number":"89","dep_name":"Yonne","cases_number":12,"cured_number":13,"deaths_number":1,"intcare_number":0,"latitude":47.8394034912,"longitude":3.56294745256,"date_record":"2020-11-20"},{"departement_number":"15","dep_name":"Cantal","cases_number":8,"cured_number":5,"deaths_number":0,"intcare_number":0,"latitude":45.052550395,"longitude":2.66724467194,"date_record":"2020-11-21"},{"departement_number":"65","dep_name":"Hautes-Pyr\u00e9n\u00e9es","cases_number":11,"cured_number":13,"deaths_number":1,"intcare_number":0,"latitude":43.0528662,"longitude":0.172283279776,"date_record":"2020-11-21"},{"departement_number":"12","dep_name":"Aveyron","cases_number":1,"cured_number":0,"deaths_number":1,"intcare_number":1,"latitude":44.2821565223,"longitude":2.67730358922,"date_record":"2020-11-22"},{"departement_number":"32","dep_name":"Gers","cases_number":1,"cured_number":0,"deaths_number":0,"intcare_number":0,"latitude":43.6910233855,"longitude":0.452525133755,"date_record":"2020-11-22"},{"departement_number":"90","dep_name":"Territoire de Belfort","cases_number":13,"cured_number":10,"deaths_number":3,"intcare_number":3,"latitude":47.6346179758,"longitude":6.92327096161,"date_record":"2020-11-22"},{"departement_number":"11","dep_name":"Aude","cases_number":7,"cured_number":8,"deaths_number":0,"intcare_number":1,"latitude":43.1040405728,"longitude":2.41617917074,"date_record":"2020-11-23"},{"departement_number":"14","dep_name":"Calvados","cases_number":10,"cured_number":5,"deaths_number":1,"intcare_number":1,"latitude":49.0997343025,"longitude":-0.360286830582,"date_record":"2020-11-23"},{"departement_number":"47","dep_name":"Lot-et-Garonne","cases_number":5,"cured_number":0,"deaths_number":1,"intcare_number":2,"latitude":44.3650343519,"longitude":0.459260227242,"date_record":"2020-11-23"},{"departement_number":"62","dep_name":"Pas-de-Calais","cases_number":38,"cured_number":12,"deaths_number":12,"intcare_number":4,"latitude":50.4904025462,"longitude":2.28387990653,"date_record":"2020-11-23"},{"departement_number":"70","dep_name":"Haute-Sa\u00f4ne","cases_number":9,"cured_number":2,"deaths_number":4,"intcare_number":3,"latitude":47.6387099589,"longitude":6.08583375124,"date_record":"2020-11-23"},{"departement_number":"71","dep_name":"Sa\u00f4ne-et-Loire","cases_number":23,"cured_number":9,"deaths_number":7,"intcare_number":3,"latitude":46.6449528758,"longitude":4.54256935774,"date_record":"2020-11-23"},{"departement_number":"79","dep_name":"Deux-S\u00e8vres","cases_number":6,"cured_number":7,"deaths_number":1,"intcare_number":1,"latitude":46.5507560865,"longitude":-0.316295053643,"date_record":"2020-11-23"},{"departement_number":"51","dep_name":"Marne","cases_number":15,"cured_number":17,"deaths_number":5,"intcare_number":4,"latitude":48.947691262,"longitude":4.23656630611,"date_record":"2020-11-24"},{"departement_number":"70","dep_name":"Haute-Sa\u00f4ne","cases_number":6,"cured_number":9,"deaths_number":0,"intcare_number":1,"latitude":47.6387099589,"longitude":6.08583375124,"date_record":"2020-11-24"},{"departement_number":"74","dep_name":"Haute-Savoie","cases_number":43,"cured_number":43,"deaths_number":12,"intcare_number":9,"latitude":46.0323853946,"longitude":6.43151849981,"date_record":"2020-11-24"},{"departement_number":"31","dep_name":"Haute-Garonne","cases_number":15,"cured_number":26,"deaths_number":4,"intcare_number":5,"latitude":43.3618361296,"longitude":1.1827434953,"date_record":"2020-11-25"},{"departement_number":"57","dep_name":"Moselle","cases_number":36,"cured_number":43,"deaths_number":13,"intcare_number":6,"latitude":49.0371678959,"longitude":6.6620530164,"date_record":"2020-11-25"},{"departement_number":"75","dep_name":"Paris","cases_number":35,"cured_number":72,"deaths_number":16,"intcare_number":9,"latitude":48.8557954256,"longitude":2.34411308321,"date_record":"2020-11-25"},{"departement_number":"23","dep_name":"Creuse","cases_number":1,"cured_number":4,"deaths_number":2,"intcare_number":1,"latitude":46.0941647071,"longitude":2.02156736274,"date_record":"2020-11-26"},{"departement_number":"53","dep_name":"Mayenne","cases_number":7,"cured_number":10,"deaths_number":4,"intcare_number":0,"latitude":48.1463719594,"longitude":-0.65589089497,"date_record":"2020-11-26"},{"departement_number":"972","dep_name":"Martinique","cases_number":3,"cured_number":4,"deaths_number":0,"intcare_number":3,"latitude":14.6548621716,"longitude":-61.0193671014,"date_record":"2020-11-26"},{"departement_number":"03","dep_name":"Allier","cases_number":13,"cured_number":14,"deaths_number":8,"intcare_number":1,"latitude":46.3935951626,"longitude":3.18694463087,"date_record":"2020-11-27"},{"departement_number":"51","dep_name":"Marne","cases_number":17,"cured_number":13,"deaths_number":3,"intcare_number":5,"latitude":48.947691262,"longitude":4.23656630611,"date_record":"2020-11-27"},{"departement_number":"86","dep_name":"Vienne","cases_number":5,"cured_number":10,"deaths_number":1,"intcare_number":1,"latitude":46.5638983824,"longitude":0.462231269996,"date_record":"2020-11-27"},{"departement_number":"88","dep_name":"Vosges","cases_number":15,"cured_number":19,"deaths_number":3,"intcare_number":1,"latitude":48.1942628932,"longitude":6.37595262926,"date_record":"2020-11-27"},{"departement_number":"03","dep_name":"Allier","cases_number":22,"cured_number":14,"deaths_number":1,"intcare_number":1,"latitude":46.3935951626,"longitude":3.18694463087,"date_record":"2020-11-28"},{"departement_number":"2A","dep_name":"Corse-du-Sud","cases_number":0,"cured_number":0,"deaths_number":0,"intcare_number":0,"latitude":41.8725745076,"longitude":8.98230498246,"date_record":"2020-11-28"},{"departement_number":"69","dep_name":"Rh\u00f4ne","cases_number":49,"cured_number":57,"deaths_number":11,"intcare_number":9,"latitude":45.8663416997,"longitude":4.64058012474,"date_record":"2020-11-28"},{"departement_number":"94","dep_name":"Val-de-Marne","cases_number":16,"cured_number":24,"deaths_number":6,"intcare_number":7,"latitude":48.7692936982,"longitude":2.47462077077,"date_record":"2020-11-28"},{"departement_number":"39","dep_name":"Jura","cases_number":5,"cured_number":4,"deaths_number":4,"intcare_number":2,"latitude":46.7307322865,"longitude":5.6954747876,"date_record":"2020-11-29"},{"departement_number":"52","dep_name":"Haute-Marne","cases_number":2,"cured_number":0,"deaths_number":0,"intcare_number":0,"latitude":48.1122966595,"longitude":5.22903858107,"date_record":"2020-11-29"},{"departement_number":"63","dep_name":"Puy-de-D\u00f4me","cases_number":8,"cured_number":8,"deaths_number":2,"intcare_number":1,"latitude":45.7248587136,"longitude":3.13939320845,"date_record":"2020-11-29"},{"departement_number":"70","dep_name":"Haute-Sa\u00f4ne","cases_number":2,"cured_number":1,"deaths_number":1,"intcare_number":0,"latitude":47.6387099589,"longitude":6.08583375124,"date_record":"2020-11-29"},{"departement_number":"83","dep_name":"Var","cases_number":12,"cured_number":9,"deaths_number":10,"intcare_number":0,"latitude":43.4437447206,"longitude":6.24426728036,"date_record":"2020-11-30"},{"departement_number":"89","dep_name":"Yonne","cases_number":17,"cured_number":27,"deaths_number":1,"intcare_number":2,"latitude":47.8394034912,"longitude":3.56294745256,"date_record":"2020-11-30"},{"departement_number":"40","dep_name":"Landes","cases_number":10,"cured_number":13,"deaths_number":2,"intcare_number":0,"latitude":43.9678995107,"longitude":-0.78938928305,"date_record":"2020-12-01"},{"departement_number":"42","dep_name":"Loire","cases_number":20,"cured_number":36,"deaths_number":11,"intcare_number":2,"latitude":45.727718684,"longitude":4.16117137934,"date_record":"2020-12-01"},{"departement_number":"76","dep_name":"Seine-Maritime","cases_number":42,"cured_number":18,"deaths_number":6,"intcare_number":7,"latitude":49.6592919439,"longitude":1.03091844922,"date_record":"2020-12-01"},{"departement_number":"27","dep_name":"Eure","cases_number":12,"cured_number":6,"deaths_number":1,"intcare_number":3,"latitude":49.1173587925,"longitude":0.994646492411,"date_record":"2020-12-02"},{"departement_number":"39","dep_name":"Jura","cases_number":11,"cured_number":10,"deaths_number":2,"intcare_number":1,"latitude":46.7307322865,"longitude":5.6954747876,"date_record":"2020-12-02"},{"departement_number":"46","dep_name":"Lot","cases_number":1,"cured_number":3,"deaths_number":1,"intcare_number":0,"latitude":44.6202297598,"longitude":1.60336993428,"date_record":"2020-12-02"},{"departement_number":"51","dep_name":"Marne","cases_number":14,"cured_number":10,"deaths_number":3,"intcare_number":2,"latitude":48.947691262,"longitude":4.23656630611,"date_record":"2020-12-02"},{"departement_number":"55","dep_name":"Meuse","cases_number":2,"cured_number":5,"deaths_number":1,"intcare_number":1,"latitude":48.9921215392,"longitude":5.38098136105,"date_record":"2020-12-02"},{"departement_number":"13","dep_name":"Bouches-du-Rh\u00f4ne","cases_number":56,"cured_number":57,"deaths_number":9,"intcare_number":17,"latitude":43.5447787602,"longitude":5.08012851604,"date_record":"2020-12-03"},{"departement_number":"37","dep_name":"Indre-et-Loire","cases_number":12,"cured_number":11,"deaths_number":2,"intcare_number":1,"latitude":47.258431298,"longitude":0.690550351171,"date_record":"2020-12-03"},{"departement_number":"08","dep_name":"Ardennes","cases_number":0,"cured_number":0,"deaths_number":0,"intcare_number":0,"latitude":49.6129025165,"longitude":4.646194327,"date_record":"2020-07-28"},{"departement_number":"52","dep_name":"Haute-Marne","cases_number":0,"cured_number":0,"deaths_number":0,"intcare_number":0,"latitude":48.1122966595,"longitude":5.22903858107,"date_record":"2020-07-28"},{"departement_number":"60","dep_name":"Oise","cases_number":0,"cured_number":7,"deaths_number":0,"intcare_number":0,"latitude":49.4081444422,"longitude":2.42770742864,"date_record":"2020-07-28"},{"departement_number":"35","dep_name":"Ille-et-Vilaine","cases_number":1,"cured_number":0,"deaths_number":0,"intcare_number":0,"latitude":48.1584949366,"longitude":-1.63554809717,"date_record":"2020-07-29"},{"departement_number":"48","dep_name":"Loz\u00e8re","cases_number":0,"cured_number":0,"deaths_number":0,"intcare_number":0,"latitude":44.5155815066,"longitude":3.49993932838,"date_record":"2020-07-29"},{"departement_number":"56","dep_name":"Morbihan","cases_number":0,"cured_number":0,"deaths_number":0,"intcare_number":0,"latitude":47.8441455862,"longitude":-2.8088066223,"date_record":"2020-07-29"},{"departement_number":"59","dep_name":"Nord","cases_number":12,"cured_number":5,"deaths_number":1,"intcare_number":0,"latitude":50.4474546111,"longitude":3.21154897235,"date_record":"2020-07-29"},{"departement_number":"91","dep_name":"Essonne","cases_number":1,"cured_number":2,"deaths_number":0,"intcare_number":0,"latitude":48.5174587303,"longitude":2.24865517666,"date_record":"2020-07-29"},{"departement_number":"08","dep_name":"Ardennes","cases_number":1,"cured_number":0,"deaths_number":0,"intcare_number":0,"latitude":49.6129025165,"longitude":4.646194327,"date_record":"2020-07-30"},{"departement_number":"13","dep_name":"Bouches-du-Rh\u00f4ne","cases_number":4,"cured_number":2,"deaths_number":0,"intcare_number":0,"latitude":43.5447787602,"longitude":5.08012851604,"date_record":"2020-07-30"},{"departement_number":"29","dep_name":"Finist\u00e8re","cases_number":0,"cured_number":0,"deaths_number":0,"intcare_number":0,"latitude":48.2628706879,"longitude":-4.05692098846,"date_record":"2020-07-30"},{"departement_number":"52","dep_name":"Haute-Marne","cases_number":0,"cured_number":0,"deaths_number":1,"intcare_number":0,"latitude":48.1122966595,"longitude":5.22903858107,"date_record":"2020-07-30"},{"departement_number":"58","dep_name":"Ni\u00e8vre","cases_number":0,"cured_number":0,"deaths_number":0,"intcare_number":0,"latitude":47.1149000482,"longitude":3.50405732988,"date_record":"2020-07-30"},{"departement_number":"81","dep_name":"Tarn","cases_number":0,"cured_number":0,"deaths_number":0,"intcare_number":0,"latitude":43.7873656836,"longitude":2.1627880067,"date_record":"2020-07-30"},{"departement_number":"972","dep_name":"Martinique","cases_number":0,"cured_number":0,"deaths_number":0,"intcare_number":0,"latitude":14.6548621716,"longitude":-61.0193671014,"date_record":"2020-07-30"},{"departement_number":"26","dep_name":"Dr\u00f4me","cases_number":0,"cured_number":1,"deaths_number":0,"intcare_number":0,"latitude":44.683884407,"longitude":5.16375567634,"date_record":"2020-07-31"},{"departement_number":"65","dep_name":"Hautes-Pyr\u00e9n\u00e9es","cases_number":0,"cured_number":0,"deaths_number":0,"intcare_number":0,"latitude":43.0528662,"longitude":0.172283279776,"date_record":"2020-07-31"},{"departement_number":"66","dep_name":"Pyr\u00e9n\u00e9es-Orientales","cases_number":0,"cured_number":1,"deaths_number":0,"intcare_number":0,"latitude":42.5992453459,"longitude":2.51921466788,"date_record":"2020-07-31"},{"departement_number":"06","dep_name":"Alpes-Maritimes","cases_number":1,"cured_number":0,"deaths_number":0,"intcare_number":0,"latitude":43.93340912,"longitude":7.11989042987,"date_record":"2020-08-01"},{"departement_number":"23","dep_name":"Creuse","cases_number":0,"cured_number":0,"deaths_number":0,"intcare_number":0,"latitude":46.0941647071,"longitude":2.02156736274,"date_record":"2020-08-01"},{"departement_number":"976","dep_name":"Mayotte","cases_number":0,"cured_number":0,"deaths_number":0,"intcare_number":0,"latitude":-12.8206134401,"longitude":45.1474418557,"date_record":"2020-08-01"},{"departement_number":"94","dep_name":"Val-de-Marne","cases_number":0,"cured_number":0,"deaths_number":0,"intcare_number":0,"latitude":48.7692936982,"longitude":2.47462077077,"date_record":"2020-08-02"},{"departement_number":"15","dep_name":"Cantal","cases_number":0,"cured_number":0,"deaths_number":0,"intcare_number":0,"latitude":45.052550395,"longitude":2.66724467194,"date_record":"2020-08-03"},{"departement_number":"38","dep_name":"Is\u00e8re","cases_number":2,"cured_number":2,"deaths_number":0,"intcare_number":0,"latitude":45.261648411,"longitude":5.57408357306,"date_record":"2020-08-03"},{"departement_number":"27","dep_name":"Eure","cases_number":0,"cured_number":0,"deaths_number":0,"intcare_number":0,"latitude":49.1173587925,"longitude":0.994646492411,"date_record":"2020-08-04"},{"departement_number":"45","dep_name":"Loiret","cases_number":0,"cured_number":1,"deaths_number":0,"intcare_number":0,"latitude":47.9116615818,"longitude":2.34174926743,"date_record":"2020-08-04"},{"departement_number":"46","dep_name":"Lot","cases_number":0,"cured_number":0,"deaths_number":0,"intcare_number":0,"latitude":44.6202297598,"longitude":1.60336993428,"date_record":"2020-08-04"},{"departement_number":"68","dep_name":"Haut-Rhin","cases_number":0,"cured_number":1,"deaths_number":0,"intcare_number":0,"latitude":47.8544215156,"longitude":7.27573030264,"date_record":"2020-08-04"},{"departement_number":"65","dep_name":"Hautes-Pyr\u00e9n\u00e9es","cases_number":0,"cured_number":1,"deaths_number":0,"intcare_number":0,"latitude":43.0528662,"longitude":0.172283279776,"date_record":"2020-08-05"},{"departement_number":"90","dep_name":"Territoire de Belfort","cases_number":1,"cured_number":0,"deaths_number":0,"intcare_number":0,"latitude":47.6346179758,"longitude":6.92327096161,"date_record":"2020-08-05"},{"departement_number":"35","dep_name":"Ille-et-Vilaine","cases_number":0,"cured_number":1,"deaths_number":0,"intcare_number":1,"latitude":48.1584949366,"longitude":-1.63554809717,"date_record":"2020-08-06"},{"departement_number":"70","dep_name":"Haute-Sa\u00f4ne","cases_number":0,"cured_number":0,"deaths_number":0,"intcare_number":0,"latitude":47.6387099589,"longitude":6.08583375124,"date_record":"2020-08-06"},{"departement_number":"75","dep_name":"Paris","cases_number":13,"cured_number":11,"deaths_number":1,"intcare_number":4,"latitude":48.8557954256,"longitude":2.34411308321,"date_record":"2020-08-06"},{"departement_number":"93","dep_name":"Seine-Saint-Denis","cases_number":9,"cured_number":10,"deaths_number":0,"intcare_number":1,"latitude":48.9083101579,"longitude":2.48332622588,"date_record":"2020-08-06"},{"departement_number":"972","dep_name":"Martinique","cases_number":1,"cured_number":0,"deaths_number":0,"intcare_number":0,"latitude":14.6548621716,"longitude":-61.0193671014,"date_record":"2020-08-06"},{"departement_number":"35","dep_name":"Ille-et-Vilaine","cases_number":2,"cured_number":0,"deaths_number":1,"intcare_number":0,"latitude":48.1584949366,"longitude":-1.63554809717,"date_record":"2020-08-07"},{"departement_number":"47","dep_name":"Lot-et-Garonne","cases_number":0,"cured_number":0,"deaths_number":0,"intcare_number":0,"latitude":44.3650343519,"longitude":0.459260227242,"date_record":"2020-08-07"},{"departement_number":"51","dep_name":"Marne","cases_number":1,"cured_number":22,"deaths_number":2,"intcare_number":0,"latitude":48.947691262,"longitude":4.23656630611,"date_record":"2020-08-07"},{"departement_number":"70","dep_name":"Haute-Sa\u00f4ne","cases_number":0,"cured_number":0,"deaths_number":0,"intcare_number":0,"latitude":47.6387099589,"longitude":6.08583375124,"date_record":"2020-08-07"},{"departement_number":"02","dep_name":"Aisne","cases_number":2,"cured_number":0,"deaths_number":0,"intcare_number":3,"latitude":49.5565688819,"longitude":3.5620366046,"date_record":"2020-08-08"},{"departement_number":"23","dep_name":"Creuse","cases_number":0,"cured_number":0,"deaths_number":0,"intcare_number":0,"latitude":46.0941647071,"longitude":2.02156736274,"date_record":"2020-08-08"},{"departement_number":"64","dep_name":"Pyr\u00e9n\u00e9es-Atlantiques","cases_number":0,"cured_number":0,"deaths_number":0,"intcare_number":0,"latitude":43.2555265161,"longitude":-0.759231599387,"date_record":"2020-08-08"},{"departement_number":"72","dep_name":"Sarthe","cases_number":0,"cured_number":0,"deaths_number":0,"intcare_number":0,"latitude":47.9939387561,"longitude":0.227666178967,"date_record":"2020-08-08"},{"departement_number":"80","dep_name":"Somme","cases_number":0,"cured_number":0,"deaths_number":0,"intcare_number":0,"latitude":49.9546602259,"longitude":2.27878272125,"date_record":"2020-08-08"},{"departement_number":"83","dep_name":"Var","cases_number":0,"cured_number":0,"deaths_number":0,"intcare_number":0,"latitude":43.4437447206,"longitude":6.24426728036,"date_record":"2020-08-08"},{"departement_number":"971","dep_name":"Guadeloupe","cases_number":2,"cured_number":2,"deaths_number":0,"intcare_number":2,"latitude":16.197646337,"longitude":-61.5397927924,"date_record":"2020-08-08"},{"departement_number":"75","dep_name":"Paris","cases_number":1,"cured_number":1,"deaths_number":0,"intcare_number":1,"latitude":48.8557954256,"longitude":2.34411308321,"date_record":"2020-08-09"},{"departement_number":"23","dep_name":"Creuse","cases_number":1,"cured_number":0,"deaths_number":0,"intcare_number":0,"latitude":46.0941647071,"longitude":2.02156736274,"date_record":"2020-08-10"},{"departement_number":"40","dep_name":"Landes","cases_number":0,"cured_number":0,"deaths_number":0,"intcare_number":0,"latitude":43.9678995107,"longitude":-0.78938928305,"date_record":"2020-08-10"},{"departement_number":"66","dep_name":"Pyr\u00e9n\u00e9es-Orientales","cases_number":0,"cured_number":0,"deaths_number":0,"intcare_number":0,"latitude":42.5992453459,"longitude":2.51921466788,"date_record":"2020-08-10"},{"departement_number":"94","dep_name":"Val-de-Marne","cases_number":4,"cured_number":0,"deaths_number":0,"intcare_number":0,"latitude":48.7692936982,"longitude":2.47462077077,"date_record":"2020-08-10"},{"departement_number":"10","dep_name":"Aube","cases_number":1,"cured_number":0,"deaths_number":0,"intcare_number":0,"latitude":48.3056988371,"longitude":4.15915758483,"date_record":"2020-08-11"},{"departement_number":"2A","dep_name":"Corse-du-Sud","cases_number":0,"cured_number":0,"deaths_number":0,"intcare_number":0,"latitude":41.8725745076,"longitude":8.98230498246,"date_record":"2020-08-11"},{"departement_number":"84","dep_name":"Vaucluse","cases_number":0,"cured_number":1,"deaths_number":0,"intcare_number":0,"latitude":44.0044504695,"longitude":5.17763039718,"date_record":"2020-08-11"},{"departement_number":"95","dep_name":"Val-d'Oise","cases_number":2,"cured_number":1,"deaths_number":0,"intcare_number":0,"latitude":49.0821697186,"longitude":2.12479545535,"date_record":"2020-08-11"},{"departement_number":"10","dep_name":"Aube","cases_number":1,"cured_number":1,"deaths_number":0,"intcare_number":0,"latitude":48.3056988371,"longitude":4.15915758483,"date_record":"2020-08-12"},{"departement_number":"11","dep_name":"Aude","cases_number":1,"cured_number":0,"deaths_number":0,"intcare_number":0,"latitude":43.1040405728,"longitude":2.41617917074,"date_record":"2020-08-12"},{"departement_number":"42","dep_name":"Loire","cases_number":0,"cured_number":0,"deaths_number":0,"intcare_number":0,"latitude":45.727718684,"longitude":4.16117137934,"date_record":"2020-08-12"},{"departement_number":"70","dep_name":"Haute-Sa\u00f4ne","cases_number":0,"cured_number":0,"deaths_number":0,"intcare_number":0,"latitude":47.6387099589,"longitude":6.08583375124,"date_record":"2020-08-12"},{"departement_number":"73","dep_name":"Savoie","cases_number":0,"cured_number":0,"deaths_number":0,"intcare_number":0,"latitude":45.4750948941,"longitude":6.44225224812,"date_record":"2020-08-12"},{"departement_number":"14","dep_name":"Calvados","cases_number":0,"cured_number":0,"deaths_number":0,"intcare_number":0,"latitude":49.0997343025,"longitude":-0.360286830582,"date_record":"2020-08-13"},{"departement_number":"28","dep_name":"Eure-et-Loir","cases_number":5,"cured_number":8,"deaths_number":2,"intcare_number":0,"latitude":48.3904369966,"longitude":1.36981669854,"date_record":"2020-08-13"},{"departement_number":"35","dep_name":"Ille-et-Vilaine","cases_number":1,"cured_number":0,"deaths_number":0,"intcare_number":0,"latitude":48.1584949366,"longitude":-1.63554809717,"date_record":"2020-08-13"},{"departement_number":"61","dep_name":"Orne","cases_number":0,"cured_number":0,"deaths_number":0,"intcare_number":0,"latitude":48.6242069157,"longitude":0.123901825625,"date_record":"2020-08-13"},{"departement_number":"69","dep_name":"Rh\u00f4ne","cases_number":8,"cured_number":4,"deaths_number":0,"intcare_number":1,"latitude":45.8663416997,"longitude":4.64058012474,"date_record":"2020-08-13"},{"departement_number":"73","dep_name":"Savoie","cases_number":1,"cured_number":0,"deaths_number":0,"intcare_number":0,"latitude":45.4750948941,"longitude":6.44225224812,"date_record":"2020-08-13"},{"departement_number":"78","dep_name":"Yvelines","cases_number":12,"cured_number":11,"deaths_number":2,"intcare_number":1,"latitude":48.8145000081,"longitude":1.84526151273,"date_record":"2020-08-13"},{"departement_number":"11","dep_name":"Aude","cases_number":0,"cured_number":0,"deaths_number":0,"intcare_number":0,"latitude":43.1040405728,"longitude":2.41617917074,"date_record":"2020-08-14"},{"departement_number":"18","dep_name":"Cher","cases_number":0,"cured_number":0,"deaths_number":0,"intcare_number":0,"latitude":47.0669238688,"longitude":2.48626613029,"date_record":"2020-08-14"},{"departement_number":"82","dep_name":"Tarn-et-Garonne","cases_number":0,"cured_number":0,"deaths_number":0,"intcare_number":0,"latitude":44.0827639407,"longitude":1.27668490496,"date_record":"2020-08-14"},{"departement_number":"976","dep_name":"Mayotte","cases_number":0,"cured_number":1,"deaths_number":0,"intcare_number":0,"latitude":-12.8206134401,"longitude":45.1474418557,"date_record":"2020-08-14"},{"departement_number":"03","dep_name":"Allier","cases_number":0,"cured_number":0,"deaths_number":0,"intcare_number":0,"latitude":46.3935951626,"longitude":3.18694463087,"date_record":"2020-08-15"},{"departement_number":"21","dep_name":"C\u00f4te-d'Or","cases_number":0,"cured_number":0,"deaths_number":0,"intcare_number":0,"latitude":47.4277320977,"longitude":4.7709068324,"date_record":"2020-08-15"},{"departement_number":"26","dep_name":"Dr\u00f4me","cases_number":0,"cured_number":0,"deaths_number":0,"intcare_number":0,"latitude":44.683884407,"longitude":5.16375567634,"date_record":"2020-08-15"},{"departement_number":"73","dep_name":"Savoie","cases_number":0,"cured_number":0,"deaths_number":0,"intcare_number":0,"latitude":45.4750948941,"longitude":6.44225224812,"date_record":"2020-08-15"},{"departement_number":"02","dep_name":"Aisne","cases_number":0,"cured_number":0,"deaths_number":0,"intcare_number":0,"latitude":49.5565688819,"longitude":3.5620366046,"date_record":"2020-08-16"},{"departement_number":"18","dep_name":"Cher","cases_number":0,"cured_number":0,"deaths_number":0,"intcare_number":0,"latitude":47.0669238688,"longitude":2.48626613029,"date_record":"2020-08-16"},{"departement_number":"22","dep_name":"C\u00f4tes-d'Armor","cases_number":0,"cured_number":0,"deaths_number":0,"intcare_number":0,"latitude":48.4390612443,"longitude":-2.86206319142,"date_record":"2020-08-16"},{"departement_number":"25","dep_name":"Doubs","cases_number":0,"cured_number":0,"deaths_number":0,"intcare_number":0,"latitude":47.1620749616,"longitude":6.36119815415,"date_record":"2020-08-16"},{"departement_number":"31","dep_name":"Haute-Garonne","cases_number":0,"cured_number":0,"deaths_number":0,"intcare_number":0,"latitude":43.3618361296,"longitude":1.1827434953,"date_record":"2020-08-16"},{"departement_number":"49","dep_name":"Maine-et-Loire","cases_number":0,"cured_number":0,"deaths_number":0,"intcare_number":0,"latitude":47.3868744384,"longitude":-0.557569659727,"date_record":"2020-08-16"},{"departement_number":"971","dep_name":"Guadeloupe","cases_number":0,"cured_number":0,"deaths_number":1,"intcare_number":0,"latitude":16.197646337,"longitude":-61.5397927924,"date_record":"2020-08-16"},{"departement_number":"52","dep_name":"Haute-Marne","cases_number":0,"cured_number":0,"deaths_number":0,"intcare_number":0,"latitude":48.1122966595,"longitude":5.22903858107,"date_record":"2020-08-17"},{"departement_number":"62","dep_name":"Pas-de-Calais","cases_number":2,"cured_number":0,"deaths_number":0,"intcare_number":1,"latitude":50.4904025462,"longitude":2.28387990653,"date_record":"2020-08-17"},{"departement_number":"68","dep_name":"Haut-Rhin","cases_number":5,"cured_number":3,"deaths_number":0,"intcare_number":0,"latitude":47.8544215156,"longitude":7.27573030264,"date_record":"2020-08-17"},{"departement_number":"90","dep_name":"Territoire de Belfort","cases_number":0,"cured_number":1,"deaths_number":0,"intcare_number":0,"latitude":47.6346179758,"longitude":6.92327096161,"date_record":"2020-08-17"},{"departement_number":"76","dep_name":"Seine-Maritime","cases_number":1,"cured_number":5,"deaths_number":0,"intcare_number":0,"latitude":49.6592919439,"longitude":1.03091844922,"date_record":"2020-08-18"},{"departement_number":"93","dep_name":"Seine-Saint-Denis","cases_number":5,"cured_number":4,"deaths_number":0,"intcare_number":2,"latitude":48.9083101579,"longitude":2.48332622588,"date_record":"2020-08-18"},{"departement_number":"09","dep_name":"Ari\u00e8ge","cases_number":1,"cured_number":0,"deaths_number":0,"intcare_number":0,"latitude":42.9192346519,"longitude":1.50528080463,"date_record":"2020-08-19"},{"departement_number":"35","dep_name":"Ille-et-Vilaine","cases_number":1,"cured_number":0,"deaths_number":0,"intcare_number":0,"latitude":48.1584949366,"longitude":-1.63554809717,"date_record":"2020-08-19"},{"departement_number":"40","dep_name":"Landes","cases_number":0,"cured_number":0,"deaths_number":0,"intcare_number":0,"latitude":43.9678995107,"longitude":-0.78938928305,"date_record":"2020-08-19"},{"departement_number":"49","dep_name":"Maine-et-Loire","cases_number":1,"cured_number":2,"deaths_number":0,"intcare_number":0,"latitude":47.3868744384,"longitude":-0.557569659727,"date_record":"2020-08-19"},{"departement_number":"62","dep_name":"Pas-de-Calais","cases_number":2,"cured_number":1,"deaths_number":0,"intcare_number":0,"latitude":50.4904025462,"longitude":2.28387990653,"date_record":"2020-08-19"},{"departement_number":"72","dep_name":"Sarthe","cases_number":2,"cured_number":2,"deaths_number":1,"intcare_number":0,"latitude":47.9939387561,"longitude":0.227666178967,"date_record":"2020-08-19"},{"departement_number":"74","dep_name":"Haute-Savoie","cases_number":0,"cured_number":5,"deaths_number":0,"intcare_number":0,"latitude":46.0323853946,"longitude":6.43151849981,"date_record":"2020-08-19"},{"departement_number":"78","dep_name":"Yvelines","cases_number":1,"cured_number":3,"deaths_number":0,"intcare_number":0,"latitude":48.8145000081,"longitude":1.84526151273,"date_record":"2020-08-19"},{"departement_number":"87","dep_name":"Haute-Vienne","cases_number":0,"cured_number":1,"deaths_number":0,"intcare_number":0,"latitude":45.894733383,"longitude":1.2356864862,"date_record":"2020-08-19"},{"departement_number":"09","dep_name":"Ari\u00e8ge","cases_number":0,"cured_number":0,"deaths_number":0,"intcare_number":0,"latitude":42.9192346519,"longitude":1.50528080463,"date_record":"2020-08-20"},{"departement_number":"24","dep_name":"Dordogne","cases_number":0,"cured_number":0,"deaths_number":0,"intcare_number":0,"latitude":45.1059247866,"longitude":0.741353186486,"date_record":"2020-08-20"},{"departement_number":"70","dep_name":"Haute-Sa\u00f4ne","cases_number":0,"cured_number":0,"deaths_number":0,"intcare_number":0,"latitude":47.6387099589,"longitude":6.08583375124,"date_record":"2020-08-20"},{"departement_number":"65","dep_name":"Hautes-Pyr\u00e9n\u00e9es","cases_number":0,"cured_number":0,"deaths_number":0,"intcare_number":0,"latitude":43.0528662,"longitude":0.172283279776,"date_record":"2020-08-21"},{"departement_number":"78","dep_name":"Yvelines","cases_number":4,"cured_number":3,"deaths_number":1,"intcare_number":0,"latitude":48.8145000081,"longitude":1.84526151273,"date_record":"2020-08-21"},{"departement_number":"01","dep_name":"Ain","cases_number":0,"cured_number":0,"deaths_number":0,"intcare_number":0,"latitude":46.0993486324,"longitude":5.34992793878,"date_record":"2020-08-22"},{"departement_number":"11","dep_name":"Aude","cases_number":1,"cured_number":0,"deaths_number":0,"intcare_number":0,"latitude":43.1040405728,"longitude":2.41617917074,"date_record":"2020-08-22"},{"departement_number":"36","dep_name":"Indre","cases_number":0,"cured_number":0,"deaths_number":0,"intcare_number":0,"latitude":46.7797106525,"longitude":1.57443501984,"date_record":"2020-08-22"},{"departement_number":"56","dep_name":"Morbihan","cases_number":0,"cured_number":0,"deaths_number":0,"intcare_number":0,"latitude":47.8441455862,"longitude":-2.8088066223,"date_record":"2020-08-22"},{"departement_number":"78","dep_name":"Yvelines","cases_number":0,"cured_number":5,"deaths_number":0,"intcare_number":0,"latitude":48.8145000081,"longitude":1.84526151273,"date_record":"2020-08-22"},{"departement_number":"976","dep_name":"Mayotte","cases_number":0,"cured_number":0,"deaths_number":0,"intcare_number":0,"latitude":-12.8206134401,"longitude":45.1474418557,"date_record":"2020-08-22"},{"departement_number":"08","dep_name":"Ardennes","cases_number":0,"cured_number":0,"deaths_number":0,"intcare_number":0,"latitude":49.6129025165,"longitude":4.646194327,"date_record":"2020-08-23"},{"departement_number":"36","dep_name":"Indre","cases_number":0,"cured_number":0,"deaths_number":0,"intcare_number":0,"latitude":46.7797106525,"longitude":1.57443501984,"date_record":"2020-08-23"},{"departement_number":"42","dep_name":"Loire","cases_number":0,"cured_number":0,"deaths_number":0,"intcare_number":0,"latitude":45.727718684,"longitude":4.16117137934,"date_record":"2020-08-23"},{"departement_number":"33","dep_name":"Gironde","cases_number":5,"cured_number":2,"deaths_number":1,"intcare_number":3,"latitude":44.8370033803,"longitude":-0.581014218898,"date_record":"2020-08-24"},{"departement_number":"973","dep_name":"Guyane","cases_number":28,"cured_number":21,"deaths_number":1,"intcare_number":0,"latitude":3.92206489103,"longitude":-53.2376576537,"date_record":"2020-08-24"},{"departement_number":"77","dep_name":"Seine-et-Marne","cases_number":8,"cured_number":9,"deaths_number":0,"intcare_number":1,"latitude":48.6281210472,"longitude":2.93531969909,"date_record":"2020-08-25"},{"departement_number":"82","dep_name":"Tarn-et-Garonne","cases_number":0,"cured_number":0,"deaths_number":0,"intcare_number":0,"latitude":44.0827639407,"longitude":1.27668490496,"date_record":"2020-08-25"},{"departement_number":"15","dep_name":"Cantal","cases_number":0,"cured_number":0,"deaths_number":0,"intcare_number":0,"latitude":45.052550395,"longitude":2.66724467194,"date_record":"2020-08-26"},{"departement_number":"44","dep_name":"Loire-Atlantique","cases_number":1,"cured_number":2,"deaths_number":0,"intcare_number":0,"latitude":47.3612553393,"longitude":-1.6750424562,"date_record":"2020-08-26"},{"departement_number":"49","dep_name":"Maine-et-Loire","cases_number":1,"cured_number":1,"deaths_number":0,"intcare_number":0,"latitude":47.3868744384,"longitude":-0.557569659727,"date_record":"2020-08-27"},{"departement_number":"976","dep_name":"Mayotte","cases_number":0,"cured_number":2,"deaths_number":0,"intcare_number":0,"latitude":-12.8206134401,"longitude":45.1474418557,"date_record":"2020-08-27"},{"departement_number":"22","dep_name":"C\u00f4tes-d'Armor","cases_number":0,"cured_number":1,"deaths_number":0,"intcare_number":0,"latitude":48.4390612443,"longitude":-2.86206319142,"date_record":"2020-08-28"},{"departement_number":"32","dep_name":"Gers","cases_number":2,"cured_number":0,"deaths_number":0,"intcare_number":0,"latitude":43.6910233855,"longitude":0.452525133755,"date_record":"2020-08-28"},{"departement_number":"2B","dep_name":"Haute-Corse","cases_number":0,"cured_number":0,"deaths_number":0,"intcare_number":0,"latitude":42.3944507303,"longitude":9.21065397337,"date_record":"2020-08-29"},{"departement_number":"42","dep_name":"Loire","cases_number":1,"cured_number":0,"deaths_number":0,"intcare_number":0,"latitude":45.727718684,"longitude":4.16117137934,"date_record":"2020-08-29"},{"departement_number":"83","dep_name":"Var","cases_number":3,"cured_number":0,"deaths_number":0,"intcare_number":0,"latitude":43.4437447206,"longitude":6.24426728036,"date_record":"2020-08-29"},{"departement_number":"03","dep_name":"Allier","cases_number":0,"cured_number":0,"deaths_number":0,"intcare_number":0,"latitude":46.3935951626,"longitude":3.18694463087,"date_record":"2020-06-25"},{"departement_number":"54","dep_name":"Meurthe-et-Moselle","cases_number":3,"cured_number":3,"deaths_number":1,"intcare_number":1,"latitude":48.7870120249,"longitude":6.16817758076,"date_record":"2020-06-25"},{"departement_number":"57","dep_name":"Moselle","cases_number":0,"cured_number":5,"deaths_number":0,"intcare_number":0,"latitude":49.0371678959,"longitude":6.6620530164,"date_record":"2020-06-25"},{"departement_number":"01","dep_name":"Ain","cases_number":0,"cured_number":0,"deaths_number":0,"intcare_number":0,"latitude":46.0993486324,"longitude":5.34992793878,"date_record":"2020-06-26"},{"departement_number":"81","dep_name":"Tarn","cases_number":0,"cured_number":0,"deaths_number":0,"intcare_number":0,"latitude":43.7873656836,"longitude":2.1627880067,"date_record":"2020-06-26"},{"departement_number":"82","dep_name":"Tarn-et-Garonne","cases_number":0,"cured_number":0,"deaths_number":0,"intcare_number":0,"latitude":44.0827639407,"longitude":1.27668490496,"date_record":"2020-06-26"},{"departement_number":"23","dep_name":"Creuse","cases_number":0,"cured_number":0,"deaths_number":0,"intcare_number":0,"latitude":46.0941647071,"longitude":2.02156736274,"date_record":"2020-06-27"},{"departement_number":"30","dep_name":"Gard","cases_number":0,"cured_number":6,"deaths_number":1,"intcare_number":0,"latitude":43.9956452617,"longitude":4.17902205205,"date_record":"2020-06-27"},{"departement_number":"77","dep_name":"Seine-et-Marne","cases_number":2,"cured_number":3,"deaths_number":0,"intcare_number":1,"latitude":48.6281210472,"longitude":2.93531969909,"date_record":"2020-06-27"},{"departement_number":"03","dep_name":"Allier","cases_number":0,"cured_number":0,"deaths_number":1,"intcare_number":0,"latitude":46.3935951626,"longitude":3.18694463087,"date_record":"2020-06-28"},{"departement_number":"29","dep_name":"Finist\u00e8re","cases_number":0,"cured_number":0,"deaths_number":0,"intcare_number":0,"latitude":48.2628706879,"longitude":-4.05692098846,"date_record":"2020-06-28"},{"departement_number":"68","dep_name":"Haut-Rhin","cases_number":0,"cured_number":0,"deaths_number":0,"intcare_number":0,"latitude":47.8544215156,"longitude":7.27573030264,"date_record":"2020-06-28"},{"departement_number":"08","dep_name":"Ardennes","cases_number":0,"cured_number":0,"deaths_number":0,"intcare_number":0,"latitude":49.6129025165,"longitude":4.646194327,"date_record":"2020-06-29"},{"departement_number":"21","dep_name":"C\u00f4te-d'Or","cases_number":0,"cured_number":1,"deaths_number":0,"intcare_number":0,"latitude":47.4277320977,"longitude":4.7709068324,"date_record":"2020-06-29"},{"departement_number":"58","dep_name":"Ni\u00e8vre","cases_number":0,"cured_number":0,"deaths_number":0,"intcare_number":0,"latitude":47.1149000482,"longitude":3.50405732988,"date_record":"2020-06-29"},{"departement_number":"75","dep_name":"Paris","cases_number":4,"cured_number":9,"deaths_number":1,"intcare_number":0,"latitude":48.8557954256,"longitude":2.34411308321,"date_record":"2020-06-29"},{"departement_number":"90","dep_name":"Territoire de Belfort","cases_number":0,"cured_number":0,"deaths_number":1,"intcare_number":0,"latitude":47.6346179758,"longitude":6.92327096161,"date_record":"2020-06-29"},{"departement_number":"07","dep_name":"Ard\u00e8che","cases_number":0,"cured_number":0,"deaths_number":0,"intcare_number":0,"latitude":44.7532685394,"longitude":4.42389358891,"date_record":"2020-06-30"},{"departement_number":"11","dep_name":"Aude","cases_number":0,"cured_number":0,"deaths_number":0,"intcare_number":0,"latitude":43.1040405728,"longitude":2.41617917074,"date_record":"2020-06-30"},{"departement_number":"52","dep_name":"Haute-Marne","cases_number":1,"cured_number":1,"deaths_number":0,"intcare_number":0,"latitude":48.1122966595,"longitude":5.22903858107,"date_record":"2020-06-30"},{"departement_number":"68","dep_name":"Haut-Rhin","cases_number":8,"cured_number":10,"deaths_number":2,"intcare_number":0,"latitude":47.8544215156,"longitude":7.27573030264,"date_record":"2020-06-30"},{"departement_number":"71","dep_name":"Sa\u00f4ne-et-Loire","cases_number":0,"cured_number":1,"deaths_number":0,"intcare_number":0,"latitude":46.6449528758,"longitude":4.54256935774,"date_record":"2020-06-30"},{"departement_number":"89","dep_name":"Yonne","cases_number":1,"cured_number":2,"deaths_number":0,"intcare_number":0,"latitude":47.8394034912,"longitude":3.56294745256,"date_record":"2020-06-30"},{"departement_number":"90","dep_name":"Territoire de Belfort","cases_number":1,"cured_number":10,"deaths_number":0,"intcare_number":0,"latitude":47.6346179758,"longitude":6.92327096161,"date_record":"2020-06-30"},{"departement_number":"38","dep_name":"Is\u00e8re","cases_number":2,"cured_number":3,"deaths_number":0,"intcare_number":0,"latitude":45.261648411,"longitude":5.57408357306,"date_record":"2020-07-01"},{"departement_number":"44","dep_name":"Loire-Atlantique","cases_number":0,"cured_number":3,"deaths_number":1,"intcare_number":0,"latitude":47.3612553393,"longitude":-1.6750424562,"date_record":"2020-07-01"},{"departement_number":"70","dep_name":"Haute-Sa\u00f4ne","cases_number":0,"cured_number":0,"deaths_number":0,"intcare_number":0,"latitude":47.6387099589,"longitude":6.08583375124,"date_record":"2020-07-01"},{"departement_number":"11","dep_name":"Aude","cases_number":0,"cured_number":0,"deaths_number":0,"intcare_number":0,"latitude":43.1040405728,"longitude":2.41617917074,"date_record":"2020-07-02"},{"departement_number":"63","dep_name":"Puy-de-D\u00f4me","cases_number":0,"cured_number":0,"deaths_number":0,"intcare_number":0,"latitude":45.7248587136,"longitude":3.13939320845,"date_record":"2020-07-02"},{"departement_number":"78","dep_name":"Yvelines","cases_number":4,"cured_number":2,"deaths_number":0,"intcare_number":0,"latitude":48.8145000081,"longitude":1.84526151273,"date_record":"2020-07-02"},{"departement_number":"19","dep_name":"Corr\u00e8ze","cases_number":0,"cured_number":0,"deaths_number":0,"intcare_number":0,"latitude":45.3569109959,"longitude":1.87657009296,"date_record":"2020-07-04"},{"departement_number":"44","dep_name":"Loire-Atlantique","cases_number":0,"cured_number":0,"deaths_number":0,"intcare_number":0,"latitude":47.3612553393,"longitude":-1.6750424562,"date_record":"2020-07-04"},{"departement_number":"47","dep_name":"Lot-et-Garonne","cases_number":0,"cured_number":0,"deaths_number":1,"intcare_number":0,"latitude":44.3650343519,"longitude":0.459260227242,"date_record":"2020-07-04"},{"departement_number":"57","dep_name":"Moselle","cases_number":0,"cured_number":11,"deaths_number":2,"intcare_number":0,"latitude":49.0371678959,"longitude":6.6620530164,"date_record":"2020-07-04"},{"departement_number":"69","dep_name":"Rh\u00f4ne","cases_number":0,"cured_number":1,"deaths_number":0,"intcare_number":0,"latitude":45.8663416997,"longitude":4.64058012474,"date_record":"2020-07-04"},{"departement_number":"71","dep_name":"Sa\u00f4ne-et-Loire","cases_number":0,"cured_number":0,"deaths_number":0,"intcare_number":0,"latitude":46.6449528758,"longitude":4.54256935774,"date_record":"2020-07-04"},{"departement_number":"76","dep_name":"Seine-Maritime","cases_number":2,"cured_number":1,"deaths_number":0,"intcare_number":0,"latitude":49.6592919439,"longitude":1.03091844922,"date_record":"2020-07-04"},{"departement_number":"971","dep_name":"Guadeloupe","cases_number":0,"cured_number":0,"deaths_number":1,"intcare_number":0,"latitude":16.197646337,"longitude":-61.5397927924,"date_record":"2020-07-04"},{"departement_number":"05","dep_name":"Hautes-Alpes","cases_number":0,"cured_number":0,"deaths_number":0,"intcare_number":0,"latitude":44.6602695202,"longitude":6.26479998904,"date_record":"2020-07-05"},{"departement_number":"13","dep_name":"Bouches-du-Rh\u00f4ne","cases_number":2,"cured_number":1,"deaths_number":0,"intcare_number":0,"latitude":43.5447787602,"longitude":5.08012851604,"date_record":"2020-07-06"},{"departement_number":"25","dep_name":"Doubs","cases_number":0,"cured_number":0,"deaths_number":0,"intcare_number":0,"latitude":47.1620749616,"longitude":6.36119815415,"date_record":"2020-07-06"},{"departement_number":"35","dep_name":"Ille-et-Vilaine","cases_number":0,"cured_number":1,"deaths_number":0,"intcare_number":0,"latitude":48.1584949366,"longitude":-1.63554809717,"date_record":"2020-07-06"},{"departement_number":"90","dep_name":"Territoire de Belfort","cases_number":0,"cured_number":0,"deaths_number":0,"intcare_number":0,"latitude":47.6346179758,"longitude":6.92327096161,"date_record":"2020-07-06"},{"departement_number":"15","dep_name":"Cantal","cases_number":0,"cured_number":0,"deaths_number":0,"intcare_number":0,"latitude":45.052550395,"longitude":2.66724467194,"date_record":"2020-07-07"},{"departement_number":"57","dep_name":"Moselle","cases_number":0,"cured_number":1,"deaths_number":0,"intcare_number":0,"latitude":49.0371678959,"longitude":6.6620530164,"date_record":"2020-07-07"},{"departement_number":"33","dep_name":"Gironde","cases_number":0,"cured_number":1,"deaths_number":0,"intcare_number":0,"latitude":44.8370033803,"longitude":-0.581014218898,"date_record":"2020-07-08"},{"departement_number":"973","dep_name":"Guyane","cases_number":32,"cured_number":31,"deaths_number":0,"intcare_number":1,"latitude":3.92206489103,"longitude":-53.2376576537,"date_record":"2020-07-08"},{"departement_number":"976","dep_name":"Mayotte","cases_number":0,"cured_number":3,"deaths_number":0,"intcare_number":0,"latitude":-12.8206134401,"longitude":45.1474418557,"date_record":"2020-07-08"},{"departement_number":"01","dep_name":"Ain","cases_number":0,"cured_number":0,"deaths_number":0,"intcare_number":0,"latitude":46.0993486324,"longitude":5.34992793878,"date_record":"2020-07-09"},{"departement_number":"40","dep_name":"Landes","cases_number":0,"cured_number":0,"deaths_number":0,"intcare_number":0,"latitude":43.9678995107,"longitude":-0.78938928305,"date_record":"2020-07-09"},{"departement_number":"17","dep_name":"Charente-Maritime","cases_number":0,"cured_number":0,"deaths_number":0,"intcare_number":0,"latitude":45.7753051382,"longitude":-0.682876145304,"date_record":"2020-07-10"},{"departement_number":"44","dep_name":"Loire-Atlantique","cases_number":3,"cured_number":4,"deaths_number":0,"intcare_number":0,"latitude":47.3612553393,"longitude":-1.6750424562,"date_record":"2020-07-10"},{"departement_number":"50","dep_name":"Manche","cases_number":0,"cured_number":0,"deaths_number":0,"intcare_number":0,"latitude":49.0844800222,"longitude":-1.32695429884,"date_record":"2020-07-10"},{"departement_number":"62","dep_name":"Pas-de-Calais","cases_number":2,"cured_number":2,"deaths_number":0,"intcare_number":1,"latitude":50.4904025462,"longitude":2.28387990653,"date_record":"2020-07-10"},{"departement_number":"73","dep_name":"Savoie","cases_number":0,"cured_number":0,"deaths_number":0,"intcare_number":0,"latitude":45.4750948941,"longitude":6.44225224812,"date_record":"2020-07-10"},{"departement_number":"35","dep_name":"Ille-et-Vilaine","cases_number":0,"cured_number":0,"deaths_number":0,"intcare_number":0,"latitude":48.1584949366,"longitude":-1.63554809717,"date_record":"2020-07-11"},{"departement_number":"77","dep_name":"Seine-et-Marne","cases_number":0,"cured_number":1,"deaths_number":0,"intcare_number":0,"latitude":48.6281210472,"longitude":2.93531969909,"date_record":"2020-07-11"},{"departement_number":"78","dep_name":"Yvelines","cases_number":6,"cured_number":13,"deaths_number":1,"intcare_number":0,"latitude":48.8145000081,"longitude":1.84526151273,"date_record":"2020-07-11"},{"departement_number":"95","dep_name":"Val-d'Oise","cases_number":1,"cured_number":2,"deaths_number":0,"intcare_number":0,"latitude":49.0821697186,"longitude":2.12479545535,"date_record":"2020-07-11"},{"departement_number":"24","dep_name":"Dordogne","cases_number":0,"cured_number":0,"deaths_number":0,"intcare_number":0,"latitude":45.1059247866,"longitude":0.741353186486,"date_record":"2020-07-12"},{"departement_number":"2A","dep_name":"Corse-du-Sud","cases_number":0,"cured_number":0,"deaths_number":0,"intcare_number":0,"latitude":41.8725745076,"longitude":8.98230498246,"date_record":"2020-07-12"},{"departement_number":"32","dep_name":"Gers","cases_number":0,"cured_number":0,"deaths_number":0,"intcare_number":0,"latitude":43.6910233855,"longitude":0.452525133755,"date_record":"2020-07-12"},{"departement_number":"41","dep_name":"Loir-et-Cher","cases_number":0,"cured_number":0,"deaths_number":0,"intcare_number":0,"latitude":47.6166739203,"longitude":1.42936448417,"date_record":"2020-07-12"},{"departement_number":"47","dep_name":"Lot-et-Garonne","cases_number":0,"cured_number":0,"deaths_number":0,"intcare_number":0,"latitude":44.3650343519,"longitude":0.459260227242,"date_record":"2020-07-12"},{"departement_number":"61","dep_name":"Orne","cases_number":0,"cured_number":0,"deaths_number":0,"intcare_number":0,"latitude":48.6242069157,"longitude":0.123901825625,"date_record":"2020-07-12"},{"departement_number":"65","dep_name":"Hautes-Pyr\u00e9n\u00e9es","cases_number":0,"cured_number":0,"deaths_number":0,"intcare_number":0,"latitude":43.0528662,"longitude":0.172283279776,"date_record":"2020-07-12"},{"departement_number":"75","dep_name":"Paris","cases_number":0,"cured_number":0,"deaths_number":0,"intcare_number":0,"latitude":48.8557954256,"longitude":2.34411308321,"date_record":"2020-07-12"},{"departement_number":"77","dep_name":"Seine-et-Marne","cases_number":0,"cured_number":1,"deaths_number":0,"intcare_number":0,"latitude":48.6281210472,"longitude":2.93531969909,"date_record":"2020-07-12"},{"departement_number":"79","dep_name":"Deux-S\u00e8vres","cases_number":0,"cured_number":0,"deaths_number":0,"intcare_number":0,"latitude":46.5507560865,"longitude":-0.316295053643,"date_record":"2020-07-12"},{"departement_number":"24","dep_name":"Dordogne","cases_number":0,"cured_number":0,"deaths_number":0,"intcare_number":0,"latitude":45.1059247866,"longitude":0.741353186486,"date_record":"2020-07-13"},{"departement_number":"35","dep_name":"Ille-et-Vilaine","cases_number":1,"cured_number":0,"deaths_number":0,"intcare_number":1,"latitude":48.1584949366,"longitude":-1.63554809717,"date_record":"2020-07-13"},{"departement_number":"70","dep_name":"Haute-Sa\u00f4ne","cases_number":0,"cured_number":0,"deaths_number":0,"intcare_number":0,"latitude":47.6387099589,"longitude":6.08583375124,"date_record":"2020-07-13"},{"departement_number":"82","dep_name":"Tarn-et-Garonne","cases_number":0,"cured_number":0,"deaths_number":0,"intcare_number":0,"latitude":44.0827639407,"longitude":1.27668490496,"date_record":"2020-07-13"},{"departement_number":"34","dep_name":"H\u00e9rault","cases_number":0,"cured_number":0,"deaths_number":0,"intcare_number":0,"latitude":43.5789600407,"longitude":3.36533220437,"date_record":"2020-07-14"},{"departement_number":"65","dep_name":"Hautes-Pyr\u00e9n\u00e9es","cases_number":1,"cured_number":1,"deaths_number":0,"intcare_number":0,"latitude":43.0528662,"longitude":0.172283279776,"date_record":"2020-07-14"},{"departement_number":"69","dep_name":"Rh\u00f4ne","cases_number":0,"cured_number":1,"deaths_number":0,"intcare_number":0,"latitude":45.8663416997,"longitude":4.64058012474,"date_record":"2020-07-14"},{"departement_number":"07","dep_name":"Ard\u00e8che","cases_number":2,"cured_number":2,"deaths_number":0,"intcare_number":0,"latitude":44.7532685394,"longitude":4.42389358891,"date_record":"2020-07-15"},{"departement_number":"76","dep_name":"Seine-Maritime","cases_number":0,"cured_number":3,"deaths_number":0,"intcare_number":0,"latitude":49.6592919439,"longitude":1.03091844922,"date_record":"2020-07-15"},{"departement_number":"94","dep_name":"Val-de-Marne","cases_number":3,"cured_number":13,"deaths_number":2,"intcare_number":0,"latitude":48.7692936982,"longitude":2.47462077077,"date_record":"2020-07-15"},{"departement_number":"01","dep_name":"Ain","cases_number":0,"cured_number":1,"deaths_number":0,"intcare_number":0,"latitude":46.0993486324,"longitude":5.34992793878,"date_record":"2020-07-16"},{"departement_number":"21","dep_name":"C\u00f4te-d'Or","cases_number":0,"cured_number":1,"deaths_number":0,"intcare_number":0,"latitude":47.4277320977,"longitude":4.7709068324,"date_record":"2020-07-16"},{"departement_number":"68","dep_name":"Haut-Rhin","cases_number":1,"cured_number":5,"deaths_number":1,"intcare_number":0,"latitude":47.8544215156,"longitude":7.27573030264,"date_record":"2020-07-16"},{"departement_number":"87","dep_name":"Haute-Vienne","cases_number":0,"cured_number":0,"deaths_number":0,"intcare_number":0,"latitude":45.894733383,"longitude":1.2356864862,"date_record":"2020-07-16"},{"departement_number":"89","dep_name":"Yonne","cases_number":1,"cured_number":0,"deaths_number":0,"intcare_number":0,"latitude":47.8394034912,"longitude":3.56294745256,"date_record":"2020-07-17"},{"departement_number":"08","dep_name":"Ardennes","cases_number":0,"cured_number":0,"deaths_number":0,"intcare_number":0,"latitude":49.6129025165,"longitude":4.646194327,"date_record":"2020-07-18"},{"departement_number":"2B","dep_name":"Haute-Corse","cases_number":0,"cured_number":0,"deaths_number":0,"intcare_number":0,"latitude":42.3944507303,"longitude":9.21065397337,"date_record":"2020-07-18"},{"departement_number":"39","dep_name":"Jura","cases_number":0,"cured_number":1,"deaths_number":0,"intcare_number":0,"latitude":46.7307322865,"longitude":5.6954747876,"date_record":"2020-07-18"},{"departement_number":"71","dep_name":"Sa\u00f4ne-et-Loire","cases_number":1,"cured_number":3,"deaths_number":0,"intcare_number":0,"latitude":46.6449528758,"longitude":4.54256935774,"date_record":"2020-07-18"},{"departement_number":"35","dep_name":"Ille-et-Vilaine","cases_number":0,"cured_number":0,"deaths_number":0,"intcare_number":0,"latitude":48.1584949366,"longitude":-1.63554809717,"date_record":"2020-07-19"},{"departement_number":"39","dep_name":"Jura","cases_number":0,"cured_number":0,"deaths_number":0,"intcare_number":0,"latitude":46.7307322865,"longitude":5.6954747876,"date_record":"2020-07-19"},{"departement_number":"45","dep_name":"Loiret","cases_number":0,"cured_number":0,"deaths_number":0,"intcare_number":0,"latitude":47.9116615818,"longitude":2.34174926743,"date_record":"2020-07-19"},{"departement_number":"80","dep_name":"Somme","cases_number":0,"cured_number":0,"deaths_number":0,"intcare_number":0,"latitude":49.9546602259,"longitude":2.27878272125,"date_record":"2020-07-19"},{"departement_number":"971","dep_name":"Guadeloupe","cases_number":0,"cured_number":0,"deaths_number":0,"intcare_number":0,"latitude":16.197646337,"longitude":-61.5397927924,"date_record":"2020-07-19"},{"departement_number":"58","dep_name":"Ni\u00e8vre","cases_number":0,"cured_number":1,"deaths_number":0,"intcare_number":0,"latitude":47.1149000482,"longitude":3.50405732988,"date_record":"2020-07-20"},{"departement_number":"02","dep_name":"Aisne","cases_number":0,"cured_number":0,"deaths_number":1,"intcare_number":0,"latitude":49.5565688819,"longitude":3.5620366046,"date_record":"2020-07-21"},{"departement_number":"41","dep_name":"Loir-et-Cher","cases_number":0,"cured_number":0,"deaths_number":0,"intcare_number":0,"latitude":47.6166739203,"longitude":1.42936448417,"date_record":"2020-07-21"},{"departement_number":"69","dep_name":"Rh\u00f4ne","cases_number":2,"cured_number":6,"deaths_number":0,"intcare_number":0,"latitude":45.8663416997,"longitude":4.64058012474,"date_record":"2020-07-21"},{"departement_number":"79","dep_name":"Deux-S\u00e8vres","cases_number":0,"cured_number":0,"deaths_number":0,"intcare_number":0,"latitude":46.5507560865,"longitude":-0.316295053643,"date_record":"2020-07-21"},{"departement_number":"87","dep_name":"Haute-Vienne","cases_number":0,"cured_number":0,"deaths_number":0,"intcare_number":0,"latitude":45.894733383,"longitude":1.2356864862,"date_record":"2020-07-21"},{"departement_number":"971","dep_name":"Guadeloupe","cases_number":0,"cured_number":0,"deaths_number":0,"intcare_number":0,"latitude":16.197646337,"longitude":-61.5397927924,"date_record":"2020-07-21"},{"departement_number":"10","dep_name":"Aube","cases_number":0,"cured_number":0,"deaths_number":0,"intcare_number":0,"latitude":48.3056988371,"longitude":4.15915758483,"date_record":"2020-07-22"},{"departement_number":"24","dep_name":"Dordogne","cases_number":0,"cured_number":0,"deaths_number":0,"intcare_number":0,"latitude":45.1059247866,"longitude":0.741353186486,"date_record":"2020-07-22"},{"departement_number":"60","dep_name":"Oise","cases_number":0,"cured_number":1,"deaths_number":0,"intcare_number":0,"latitude":49.4081444422,"longitude":2.42770742864,"date_record":"2020-07-22"},{"departement_number":"80","dep_name":"Somme","cases_number":0,"cured_number":0,"deaths_number":2,"intcare_number":0,"latitude":49.9546602259,"longitude":2.27878272125,"date_record":"2020-07-22"},{"departement_number":"81","dep_name":"Tarn","cases_number":0,"cured_number":0,"deaths_number":0,"intcare_number":0,"latitude":43.7873656836,"longitude":2.1627880067,"date_record":"2020-07-22"},{"departement_number":"89","dep_name":"Yonne","cases_number":1,"cured_number":0,"deaths_number":0,"intcare_number":0,"latitude":47.8394034912,"longitude":3.56294745256,"date_record":"2020-07-22"},{"departement_number":"90","dep_name":"Territoire de Belfort","cases_number":0,"cured_number":3,"deaths_number":0,"intcare_number":0,"latitude":47.6346179758,"longitude":6.92327096161,"date_record":"2020-07-22"},{"departement_number":"06","dep_name":"Alpes-Maritimes","cases_number":4,"cured_number":11,"deaths_number":0,"intcare_number":1,"latitude":43.93340912,"longitude":7.11989042987,"date_record":"2020-07-23"},{"departement_number":"56","dep_name":"Morbihan","cases_number":0,"cured_number":1,"deaths_number":0,"intcare_number":0,"latitude":47.8441455862,"longitude":-2.8088066223,"date_record":"2020-07-23"},{"departement_number":"61","dep_name":"Orne","cases_number":0,"cured_number":5,"deaths_number":0,"intcare_number":0,"latitude":48.6242069157,"longitude":0.123901825625,"date_record":"2020-07-23"},{"departement_number":"66","dep_name":"Pyr\u00e9n\u00e9es-Orientales","cases_number":0,"cured_number":0,"deaths_number":0,"intcare_number":0,"latitude":42.5992453459,"longitude":2.51921466788,"date_record":"2020-07-23"},{"departement_number":"10","dep_name":"Aube","cases_number":0,"cured_number":0,"deaths_number":0,"intcare_number":0,"latitude":48.3056988371,"longitude":4.15915758483,"date_record":"2020-07-25"},{"departement_number":"62","dep_name":"Pas-de-Calais","cases_number":1,"cured_number":0,"deaths_number":0,"intcare_number":1,"latitude":50.4904025462,"longitude":2.28387990653,"date_record":"2020-07-25"},{"departement_number":"28","dep_name":"Eure-et-Loir","cases_number":0,"cured_number":0,"deaths_number":0,"intcare_number":0,"latitude":48.3904369966,"longitude":1.36981669854,"date_record":"2020-07-26"},{"departement_number":"69","dep_name":"Rh\u00f4ne","cases_number":0,"cured_number":0,"deaths_number":0,"intcare_number":0,"latitude":45.8663416997,"longitude":4.64058012474,"date_record":"2020-07-26"},{"departement_number":"972","dep_name":"Martinique","cases_number":0,"cured_number":0,"deaths_number":0,"intcare_number":0,"latitude":14.6548621716,"longitude":-61.0193671014,"date_record":"2020-07-26"},{"departement_number":"976","dep_name":"Mayotte","cases_number":0,"cured_number":2,"deaths_number":0,"intcare_number":0,"latitude":-12.8206134401,"longitude":45.1474418557,"date_record":"2020-07-26"},{"departement_number":"25","dep_name":"Doubs","cases_number":0,"cured_number":0,"deaths_number":0,"intcare_number":0,"latitude":47.1620749616,"longitude":6.36119815415,"date_record":"2020-07-27"},{"departement_number":"27","dep_name":"Eure","cases_number":0,"cured_number":0,"deaths_number":0,"intcare_number":0,"latitude":49.1173587925,"longitude":0.994646492411,"date_record":"2020-07-27"},{"departement_number":"71","dep_name":"Sa\u00f4ne-et-Loire","cases_number":1,"cured_number":1,"deaths_number":0,"intcare_number":0,"latitude":46.6449528758,"longitude":4.54256935774,"date_record":"2020-07-27"},{"departement_number":"74","dep_name":"Haute-Savoie","cases_number":6,"cured_number":12,"deaths_number":8,"intcare_number":1,"latitude":46.0323853946,"longitude":6.43151849981,"date_record":"2020-04-20"},{"departement_number":"77","dep_name":"Seine-et-Marne","cases_number":46,"cured_number":49,"deaths_number":18,"intcare_number":6,"latitude":48.6281210472,"longitude":2.93531969909,"date_record":"2020-04-20"},{"departement_number":"93","dep_name":"Seine-Saint-Denis","cases_number":86,"cured_number":67,"deaths_number":12,"intcare_number":10,"latitude":48.9083101579,"longitude":2.48332622588,"date_record":"2020-04-20"},{"departement_number":"09","dep_name":"Ari\u00e8ge","cases_number":0,"cured_number":0,"deaths_number":0,"intcare_number":0,"latitude":42.9192346519,"longitude":1.50528080463,"date_record":"2020-04-22"},{"departement_number":"27","dep_name":"Eure","cases_number":1,"cured_number":1,"deaths_number":1,"intcare_number":0,"latitude":49.1173587925,"longitude":0.994646492411,"date_record":"2020-04-22"},{"departement_number":"42","dep_name":"Loire","cases_number":23,"cured_number":16,"deaths_number":5,"intcare_number":1,"latitude":45.727718684,"longitude":4.16117137934,"date_record":"2020-04-23"},{"departement_number":"50","dep_name":"Manche","cases_number":4,"cured_number":9,"deaths_number":1,"intcare_number":0,"latitude":49.0844800222,"longitude":-1.32695429884,"date_record":"2020-04-23"},{"departement_number":"58","dep_name":"Ni\u00e8vre","cases_number":3,"cured_number":7,"deaths_number":0,"intcare_number":0,"latitude":47.1149000482,"longitude":3.50405732988,"date_record":"2020-04-23"},{"departement_number":"71","dep_name":"Sa\u00f4ne-et-Loire","cases_number":12,"cured_number":4,"deaths_number":4,"intcare_number":0,"latitude":46.6449528758,"longitude":4.54256935774,"date_record":"2020-04-23"},{"departement_number":"24","dep_name":"Dordogne","cases_number":0,"cured_number":9,"deaths_number":0,"intcare_number":0,"latitude":45.1059247866,"longitude":0.741353186486,"date_record":"2020-04-24"},{"departement_number":"45","dep_name":"Loiret","cases_number":6,"cured_number":4,"deaths_number":2,"intcare_number":3,"latitude":47.9116615818,"longitude":2.34174926743,"date_record":"2020-04-24"},{"departement_number":"83","dep_name":"Var","cases_number":10,"cured_number":9,"deaths_number":3,"intcare_number":1,"latitude":43.4437447206,"longitude":6.24426728036,"date_record":"2020-04-24"},{"departement_number":"95","dep_name":"Val-d'Oise","cases_number":43,"cured_number":41,"deaths_number":15,"intcare_number":5,"latitude":49.0821697186,"longitude":2.12479545535,"date_record":"2020-04-24"},{"departement_number":"45","dep_name":"Loiret","cases_number":5,"cured_number":8,"deaths_number":1,"intcare_number":2,"latitude":47.9116615818,"longitude":2.34174926743,"date_record":"2020-04-25"},{"departement_number":"27","dep_name":"Eure","cases_number":1,"cured_number":0,"deaths_number":0,"intcare_number":0,"latitude":49.1173587925,"longitude":0.994646492411,"date_record":"2020-04-26"},{"departement_number":"2B","dep_name":"Haute-Corse","cases_number":0,"cured_number":0,"deaths_number":0,"intcare_number":0,"latitude":42.3944507303,"longitude":9.21065397337,"date_record":"2020-04-26"},{"departement_number":"51","dep_name":"Marne","cases_number":5,"cured_number":1,"deaths_number":2,"intcare_number":0,"latitude":48.947691262,"longitude":4.23656630611,"date_record":"2020-04-26"},{"departement_number":"67","dep_name":"Bas-Rhin","cases_number":5,"cured_number":7,"deaths_number":6,"intcare_number":0,"latitude":48.6720331593,"longitude":7.55859593939,"date_record":"2020-04-26"},{"departement_number":"19","dep_name":"Corr\u00e8ze","cases_number":7,"cured_number":2,"deaths_number":1,"intcare_number":1,"latitude":45.3569109959,"longitude":1.87657009296,"date_record":"2020-04-27"},{"departement_number":"56","dep_name":"Morbihan","cases_number":2,"cured_number":1,"deaths_number":0,"intcare_number":1,"latitude":47.8441455862,"longitude":-2.8088066223,"date_record":"2020-04-27"},{"departement_number":"77","dep_name":"Seine-et-Marne","cases_number":22,"cured_number":17,"deaths_number":10,"intcare_number":3,"latitude":48.6281210472,"longitude":2.93531969909,"date_record":"2020-04-27"},{"departement_number":"973","dep_name":"Guyane","cases_number":0,"cured_number":0,"deaths_number":0,"intcare_number":0,"latitude":3.92206489103,"longitude":-53.2376576537,"date_record":"2020-04-27"},{"departement_number":"03","dep_name":"Allier","cases_number":1,"cured_number":4,"deaths_number":1,"intcare_number":0,"latitude":46.3935951626,"longitude":3.18694463087,"date_record":"2020-04-28"},{"departement_number":"14","dep_name":"Calvados","cases_number":7,"cured_number":7,"deaths_number":2,"intcare_number":1,"latitude":49.0997343025,"longitude":-0.360286830582,"date_record":"2020-04-28"},{"departement_number":"51","dep_name":"Marne","cases_number":8,"cured_number":9,"deaths_number":0,"intcare_number":1,"latitude":48.947691262,"longitude":4.23656630611,"date_record":"2020-04-29"},{"departement_number":"72","dep_name":"Sarthe","cases_number":4,"cured_number":9,"deaths_number":2,"intcare_number":0,"latitude":47.9939387561,"longitude":0.227666178967,"date_record":"2020-04-29"},{"departement_number":"87","dep_name":"Haute-Vienne","cases_number":1,"cured_number":4,"deaths_number":0,"intcare_number":0,"latitude":45.894733383,"longitude":1.2356864862,"date_record":"2020-04-30"},{"departement_number":"24","dep_name":"Dordogne","cases_number":0,"cured_number":0,"deaths_number":0,"intcare_number":0,"latitude":45.1059247866,"longitude":0.741353186486,"date_record":"2020-05-01"},{"departement_number":"30","dep_name":"Gard","cases_number":0,"cured_number":0,"deaths_number":0,"intcare_number":0,"latitude":43.9956452617,"longitude":4.17902205205,"date_record":"2020-05-01"},{"departement_number":"37","dep_name":"Indre-et-Loire","cases_number":5,"cured_number":3,"deaths_number":1,"intcare_number":2,"latitude":47.258431298,"longitude":0.690550351171,"date_record":"2020-05-01"},{"departement_number":"46","dep_name":"Lot","cases_number":3,"cured_number":0,"deaths_number":0,"intcare_number":0,"latitude":44.6202297598,"longitude":1.60336993428,"date_record":"2020-05-01"},{"departement_number":"01","dep_name":"Ain","cases_number":1,"cured_number":0,"deaths_number":0,"intcare_number":1,"latitude":46.0993486324,"longitude":5.34992793878,"date_record":"2020-05-02"},{"departement_number":"37","dep_name":"Indre-et-Loire","cases_number":3,"cured_number":3,"deaths_number":0,"intcare_number":0,"latitude":47.258431298,"longitude":0.690550351171,"date_record":"2020-05-02"},{"departement_number":"50","dep_name":"Manche","cases_number":1,"cured_number":2,"deaths_number":0,"intcare_number":0,"latitude":49.0844800222,"longitude":-1.32695429884,"date_record":"2020-05-02"},{"departement_number":"01","dep_name":"Ain","cases_number":1,"cured_number":0,"deaths_number":0,"intcare_number":0,"latitude":46.0993486324,"longitude":5.34992793878,"date_record":"2020-05-03"},{"departement_number":"08","dep_name":"Ardennes","cases_number":2,"cured_number":0,"deaths_number":1,"intcare_number":2,"latitude":49.6129025165,"longitude":4.646194327,"date_record":"2020-05-03"},{"departement_number":"12","dep_name":"Aveyron","cases_number":0,"cured_number":0,"deaths_number":0,"intcare_number":0,"latitude":44.2821565223,"longitude":2.67730358922,"date_record":"2020-05-03"},{"departement_number":"26","dep_name":"Dr\u00f4me","cases_number":0,"cured_number":1,"deaths_number":0,"intcare_number":0,"latitude":44.683884407,"longitude":5.16375567634,"date_record":"2020-05-03"},{"departement_number":"74","dep_name":"Haute-Savoie","cases_number":4,"cured_number":5,"deaths_number":3,"intcare_number":0,"latitude":46.0323853946,"longitude":6.43151849981,"date_record":"2020-05-03"},{"departement_number":"10","dep_name":"Aube","cases_number":4,"cured_number":0,"deaths_number":1,"intcare_number":0,"latitude":48.3056988371,"longitude":4.15915758483,"date_record":"2020-05-04"},{"departement_number":"49","dep_name":"Maine-et-Loire","cases_number":7,"cured_number":5,"deaths_number":1,"intcare_number":0,"latitude":47.3868744384,"longitude":-0.557569659727,"date_record":"2020-05-04"},{"departement_number":"14","dep_name":"Calvados","cases_number":10,"cured_number":7,"deaths_number":0,"intcare_number":0,"latitude":49.0997343025,"longitude":-0.360286830582,"date_record":"2020-05-05"},{"departement_number":"71","dep_name":"Sa\u00f4ne-et-Loire","cases_number":12,"cured_number":11,"deaths_number":0,"intcare_number":0,"latitude":46.6449528758,"longitude":4.54256935774,"date_record":"2020-05-05"},{"departement_number":"971","dep_name":"Guadeloupe","cases_number":0,"cured_number":0,"deaths_number":1,"intcare_number":0,"latitude":16.197646337,"longitude":-61.5397927924,"date_record":"2020-05-05"},{"departement_number":"13","dep_name":"Bouches-du-Rh\u00f4ne","cases_number":39,"cured_number":42,"deaths_number":3,"intcare_number":2,"latitude":43.5447787602,"longitude":5.08012851604,"date_record":"2020-05-06"},